rosbagTimestamp,latitude,longitude,label
1720000000,44.9990998013,-80.9994392113,1
1739000000,44.9990998069,-80.9994391769,1
1760000000,44.9990998048,-80.9994391593,1
1779000000,44.9990998053,-80.9994391561,1
1799000000,44.9990998052,-80.9994391659,1
1819000000,44.9990998052,-80.9994391859,1
1841000000,44.9990998049,-80.999439203,1
1859000000,44.9990998044,-80.9994391905,1
1880000000,44.9990998047,-80.9994391869,1
1900000000,44.9990998041,-80.9994391825,1
1919000000,44.9990998041,-80.9994391771,1
1939000000,44.999099804,-80.9994391732,1
1960000000,44.9990998037,-80.9994391694,1
1979000000,44.9990998031,-80.999439165,1
2002000000,44.9990998024,-80.9994391604,1
2021000000,44.9990998027,-80.9994391562,1
2040000000,44.9990998022,-80.9994391522,1
2065000000,44.9990998016,-80.9994391481,1
2079000000,44.9990998015,-80.9994391438,1
2099000000,44.9990998014,-80.9994391397,1
2120000000,44.9990998013,-80.9994391355,1
2140000000,44.9990998013,-80.9994391318,1
2159000000,44.9990998012,-80.9994391281,1
2180000000,44.9990998012,-80.9994391242,1
2207000000,44.9990998012,-80.9994391202,1
2219000000,44.9990998011,-80.999439117,1
2246000000,44.9990998011,-80.9994391135,1
2263000000,44.999099801,-80.9994391095,1
2279000000,44.999099801,-80.9994391066,1
2302000000,44.999099801,-80.9994391029,1
2319000000,44.9990998009,-80.9994391,1
2345000000,44.9990998009,-80.9994390957,1
2359000000,44.9990998009,-80.9994390933,1
2379000000,44.9990998008,-80.99943909,1
2399000000,44.9990998008,-80.9994390868,1
2420000000,44.9990998007,-80.9994390836,1
2439000000,44.9990998007,-80.9994390805,1
2459000000,44.9990998006,-80.9994390774,1
2480000000,44.9990998006,-80.999439074,1
2500000000,44.9990998006,-80.999439071,1
2520000000,44.9990998005,-80.9994390679,1
2540000000,44.9990998005,-80.9994390646,1
2560000000,44.9990998004,-80.9994390615,1
2580000000,44.9990998004,-80.9994390586,1
2600000000,44.9990998004,-80.9994390554,1
2620000000,44.9990998004,-80.9994390525,1
2639000000,44.9990998003,-80.9994390494,1
2660000000,44.9990998003,-80.9994390463,1
2679000000,44.9990998002,-80.9994390433,1
2700000000,44.9990998002,-80.9994390401,1
2720000000,44.9990998002,-80.9994390372,1
2740000000,44.9990998001,-80.999439034,1
2759000000,44.9990998,-80.9994390312,1
2776000000,44.9990998,-80.9994390279,1
2809000000,44.9990997999,-80.9994390236,1
2819000000,44.9990998,-80.999439022,1
2839000000,44.9990997999,-80.999439019,1
2860000000,44.9990997999,-80.9994390159,1
2884000000,44.9990997998,-80.9994390123,1
2900000000,44.9990997998,-80.9994390099,1
2926000000,44.9990997998,-80.9994390059,1
2940000000,44.9990997997,-80.9994390038,1
2960000000,44.9990997997,-80.9994390008,1
2979000000,44.9990997996,-80.9994389978,1
3000000000,44.9990997996,-80.9994389948,1
3020000000,44.9990997996,-80.9994389917,1
3040000000,44.9990997995,-80.9994389889,1
3059000000,44.9990997995,-80.9994389857,1
3079000000,44.9990997994,-80.9994389827,1
3099000000,44.9990997994,-80.9994389797,1
3119000000,44.9990997994,-80.9994389766,1
3139000000,44.9990997993,-80.9994389736,1
3159000000,44.9990997993,-80.9994389706,1
3179000000,44.9990997992,-80.9994389676,1
3199000000,44.9990997992,-80.9994389646,1
3219000000,44.9990997992,-80.9994389616,1
3239000000,44.9990997991,-80.9994389587,1
3259000000,44.999099799,-80.9994389557,1
3285000000,44.999099799,-80.9994389516,1
3300000000,44.999099799,-80.9994389495,1
3334000000,44.9990997989,-80.9994389444,1
3339000000,44.9990997989,-80.9994389435,1
3361000000,44.9990997988,-80.9994389403,1
3381000000,44.9990997988,-80.9994389373,1
3400000000,44.9990997987,-80.9994389342,1
3420000000,44.9990997987,-80.9994389312,1
3439000000,44.9990997987,-80.9994389284,1
3459000000,44.9990997987,-80.9994389254,1
3480000000,44.9990997986,-80.9994389223,1
3500000000,44.9990997986,-80.9994389193,1
3519000000,44.9990997985,-80.9994389165,1
3541000000,44.9990997985,-80.9994389133,1
3564000000,44.9990997984,-80.9994389095,1
3586000000,44.9990997984,-80.9994389073,1
3600000000,44.9990997984,-80.9994389043,1
3624000000,44.9990997983,-80.9994389006,1
3639000000,44.9990997983,-80.9994388982,1
3660000000,44.9990997982,-80.9994388952,1
3699000000,44.9990997981,-80.9994388895,1
3700000000,44.9990997981,-80.9994388892,1
3726000000,44.9990997981,-80.999438885,1
3740000000,44.9990997981,-80.9994388831,1
3760000000,44.999099798,-80.9994388801,1
3780000000,44.999099798,-80.9994388771,1
3802000000,44.9990997979,-80.9994388738,1
3819000000,44.9990997979,-80.9994388712,1
3840000000,44.9990997978,-80.9994388679,1
3859000000,44.9990997978,-80.9994388651,1
3879000000,44.9990997978,-80.999438862,1
3900000000,44.9990997977,-80.999438859,1
3920000000,44.9990997977,-80.999438856,1
3940000000,44.9990997976,-80.999438853,1
3964000000,44.9990997976,-80.99943885,1
3981000000,44.9990997975,-80.9994388468,1
4001000000,44.9990997975,-80.9994388438,1
4021000000,44.9990997974,-80.9994388408,1
4039000000,44.9990997974,-80.9994388381,1
4059000000,44.9990997974,-80.9994388349,1
4080000000,44.9990997973,-80.9994388319,1
4100000000,44.9990997973,-80.9994388289,1
4131000000,44.9990997972,-80.9994388257,1
4140000000,44.9990997972,-80.9994388228,1
4161000000,44.9990997971,-80.9994388195,1
4179000000,44.9990997971,-80.9994388168,1
4200000000,44.999099797,-80.9994388136,1
4220000000,44.999099797,-80.9994388108,1
4231000000,44.999099797,-80.9994388078,1
4259000000,44.9990997969,-80.9994388047,1
4287000000,44.9990997968,-80.9994388016,1
4300000000,44.9990997968,-80.9994387987,1
4319000000,44.9990997968,-80.9994387957,1
4340000000,44.9990997967,-80.9994387927,1
4362000000,44.9990997966,-80.9994387895,1
4386000000,44.9990997966,-80.9994387856,1
4400000000,44.9990997966,-80.9994387836,1
4424000000,44.9990997965,-80.9994387797,1
4442000000,44.9990997965,-80.9994387773,1
4460000000,44.9990997964,-80.9994387746,1
4482000000,44.9990997964,-80.9994387713,1
4499000000,44.9990997964,-80.9994387685,1
4520000000,44.9990997963,-80.9994387655,1
4540000000,44.9990997963,-80.9994387625,1
4560000000,44.9990997962,-80.9994387595,1
4580000000,44.9990997962,-80.9994387565,1
4600000000,44.9990997961,-80.9994387535,1
4620000000,44.9990997961,-80.9994387505,1
4640000000,44.999099796,-80.9994387474,1
4660000000,44.999099796,-80.9994387444,1
4680000000,44.9990997959,-80.9994387409,1
4703000000,44.9990997959,-80.9994387378,1
4730000000,44.9990997958,-80.9994387339,1
4740000000,44.9990997958,-80.9994387324,1
4763000000,44.9990997957,-80.9994387289,1
4780000000,44.9990997957,-80.9994387263,1
4799000000,44.9990997956,-80.9994387234,1
4819000000,44.9990997956,-80.9994387203,1
4839000000,44.9990997956,-80.9994387173,1
4860000000,44.9990997955,-80.9994387143,1
4881000000,44.9990997954,-80.9994387111,1
4909000000,44.9990997954,-80.9994387081,1
4936000000,44.9990997953,-80.9994387026,1
4939000000,44.9990997953,-80.9994387022,1
4960000000,44.9990997952,-80.999438699,1
4979000000,44.9990997952,-80.9994386962,1
5015000000,44.9990997952,-80.9994386922,1
5020000000,44.9990997951,-80.9994386901,1
5039000000,44.9990997951,-80.9994386871,1
5059000000,44.999099795,-80.9994386841,1
5080000000,44.9990997949,-80.9994386809,1
5101000000,44.9990997949,-80.9994386779,1
5121000000,44.9990997949,-80.9994386749,1
5145000000,44.9990997948,-80.9994386711,1
5160000000,44.9990997948,-80.9994386689,1
5181000000,44.9990997947,-80.9994386658,1
5200000000,44.9990997947,-80.999438663,1
5221000000,44.9990997946,-80.9994386598,1
5239000000,44.9990997946,-80.9994386569,1
5262000000,44.9990997945,-80.9994386536,1
5283000000,44.9990997945,-80.9994386505,1
5300000000,44.9990997944,-80.9994386479,1
5325000000,44.9990997944,-80.9994386441,1
5340000000,44.9990997943,-80.9994386417,1
5360000000,44.9990997943,-80.9994386369,1
5385000000,44.9990997942,-80.9994386283,1
5397000000,44.9990997942,-80.9994386218,1
5419000000,44.9990997941,-80.9994386114,1
5440000000,44.999099794,-80.9994385991,1
5460000000,44.9990997938,-80.9994385857,1
5487000000,44.9990997937,-80.9994385673,1
5501000000,44.9990997936,-80.999438557,1
5519000000,44.9990997934,-80.9994385426,1
5540000000,44.9990997933,-80.999438526,1
5559000000,44.9990997931,-80.9994385096,1
5585000000,44.9990997929,-80.9994384926,1
5602000000,44.9990997927,-80.9994384723,1
5620000000,44.9990997926,-80.9994384567,1
5639000000,44.9990997923,-80.9994384388,1
5669000000,44.9990997921,-80.9994384102,1
5679000000,44.999099792,-80.999438399,1
5700000000,44.9990997918,-80.999438377,1
5719000000,44.9990997916,-80.9994383554,1
5749000000,44.9990997913,-80.9994383216,1
5761000000,44.9990997912,-80.99943831,1
5786000000,44.9990997909,-80.9994382789,1
5799000000,44.9990997908,-80.9994382617,1
5819000000,44.9990997906,-80.9994382364,1
5840000000,44.9990997903,-80.9994382103,1
5859000000,44.9990997901,-80.9994381849,1
5879000000,44.9990997899,-80.999438156,1
5901000000,44.9990997896,-80.9994381261,1
5920000000,44.9990997894,-80.9994380984,1
5939000000,44.9990997891,-80.9994380684,1
5960000000,44.9990997888,-80.999438036,1
5980000000,44.9990997886,-80.9994380059,1
6005000000,44.9990997882,-80.9994379651,1
6021000000,44.999099788,-80.9994379383,1
6040000000,44.9990997877,-80.9994379057,1
6059000000,44.9990997875,-80.9994378723,1
6079000000,44.9990997872,-80.9994378361,1
6100000000,44.9990997869,-80.9994377971,1
6119000000,44.9990997865,-80.9994377607,1
6144000000,44.999099786,-80.9994377093,1
6159000000,44.9990997857,-80.9994376808,1
6179000000,44.9990997854,-80.9994376371,1
6200000000,44.999099785,-80.9994375941,1
6219000000,44.9990997846,-80.9994375499,1
6239000000,44.9990997841,-80.9994375066,1
6264000000,44.9990997835,-80.9994374477,1
6280000000,44.999099783,-80.9994374063,1
6300000000,44.9990997826,-80.9994373589,1
6320000000,44.9990997821,-80.9994373074,1
6340000000,44.9990997815,-80.9994372542,1
6359000000,44.9990997808,-80.9994372021,1
6388000000,44.9990997799,-80.9994371226,1
6399000000,44.9990997795,-80.9994370874,1
6425000000,44.9990997785,-80.9994370089,1
6439000000,44.9990997779,-80.9994369623,1
6460000000,44.9990997771,-80.9994368951,1
6480000000,44.9990997762,-80.9994368291,1
6501000000,44.9990997753,-80.9994367577,1
6520000000,44.9990997744,-80.9994366982,1
6540000000,44.9990997734,-80.9994366226,1
6563000000,44.9990997721,-80.9994365333,1
6580000000,44.9990997712,-80.999436472,1
6600000000,44.99909977,-80.9994363973,1
6616000000,44.9990997687,-80.9994363124,1
6639000000,44.9990997674,-80.9994362291,1
6659000000,44.999099766,-80.9994361434,1
6679000000,44.9990997645,-80.9994360552,1
6700000000,44.9990997629,-80.9994359644,1
6721000000,44.9990997612,-80.9994358662,1
6740000000,44.9990997595,-80.9994357749,1
6771000000,44.9990997567,-80.9994356307,1
6780000000,44.9990997555,-80.9994355693,1
6807000000,44.9990997528,-80.9994354328,1
6824000000,44.9990997508,-80.9994353353,1
6841000000,44.9990997491,-80.9994352523,1
6860000000,44.9990997465,-80.9994351332,1
6879000000,44.9990997441,-80.9994350224,1
6899000000,44.9990997414,-80.9994349027,1
6922000000,44.9990997382,-80.9994347673,1
6942000000,44.9990997352,-80.9994346407,1
6960000000,44.9990997323,-80.9994345238,1
6980000000,44.999099729,-80.9994343906,1
7000000000,44.9990997254,-80.9994342539,1
7020000000,44.9990997216,-80.9994341136,1
7040000000,44.9990997174,-80.9994339623,1
7072000000,44.9990997115,-80.9994337543,1
7086000000,44.9990997078,-80.9994336244,1
7100000000,44.9990997045,-80.9994335153,1
7120000000,44.9990996996,-80.9994333561,1
7139000000,44.9990996945,-80.999433193,1
7160000000,44.9990996888,-80.9994330173,1
7185000000,44.9990996817,-80.999432811,1
7205000000,44.9990996755,-80.9994326435,1
7224000000,44.9990996693,-80.9994324721,1
7240000000,44.9990996628,-80.9994323156,1
7260000000,44.9990996563,-80.9994321272,1
7288000000,44.9990996473,-80.9994319052,1
7299000000,44.9990996403,-80.9994317374,1
7319000000,44.9990996326,-80.999431546,1
7339000000,44.9990996239,-80.99943134,1
7361000000,44.9990996146,-80.9994311295,1
7380000000,44.9990996049,-80.9994309143,1
7400000000,44.9990995947,-80.9994306944,1
7419000000,44.9990995836,-80.9994304583,1
7439000000,44.9990995724,-80.9994302285,1
7460000000,44.9990995608,-80.9994299939,1
7483000000,44.9990995479,-80.9994297422,1
7499000000,44.9990995359,-80.9994295098,1
7530000000,44.9990995157,-80.9994291337,1
7547000000,44.9990995066,-80.9994289672,1
7559000000,44.9990994943,-80.9994287462,1
7579000000,44.9990994792,-80.9994284816,1
7600000000,44.9990994634,-80.9994282118,1
7621000000,44.9990994453,-80.9994279091,1
7639000000,44.9990994308,-80.999427671,1
7660000000,44.9990994121,-80.9994273716,1
7679000000,44.9990993935,-80.9994270811,1
7700000000,44.9990993741,-80.9994267853,1
7719000000,44.999099355,-80.9994264995,1
7739000000,44.9990993341,-80.9994261934,1
7759000000,44.9990993112,-80.9994258663,1
7779000000,44.9990992896,-80.9994255653,1
7799000000,44.9990992649,-80.999425227,1
7819000000,44.9990992403,-80.9994248993,1
7840000000,44.9990992135,-80.9994245492,1
7860000000,44.9990991883,-80.9994242271,1
7882000000,44.9990991593,-80.9994238653,1
7901000000,44.9990991321,-80.9994235325,1
7920000000,44.9990991024,-80.9994231765,1
7947000000,44.9990990604,-80.9994226868,1
7964000000,44.9990990329,-80.9994223731,1
7982000000,44.9990990044,-80.9994220551,1
8000000000,44.9990989716,-80.9994216945,1
8026000000,44.9990989266,-80.999421212,1
8026000000,44.9990988967,-80.9994208982,1
8060000000,44.9990988601,-80.9994205206,1
8080000000,44.9990988201,-80.9994201172,1
8099000000,44.9990987788,-80.9994197076,1
8130000000,44.9990987139,-80.9994190818,1
8139000000,44.9990986915,-80.9994188701,1
8160000000,44.9990986455,-80.9994184419,1
8181000000,44.9990985979,-80.9994180076,1
8201000000,44.9990985461,-80.9994175447,1
8229000000,44.9990984767,-80.9994169394,1
8240000000,44.9990984448,-80.9994166666,1
8260000000,44.9990983902,-80.9994162069,1
8279000000,44.9990983309,-80.9994157173,1
8300000000,44.9990982754,-80.9994152681,1
8324000000,44.9990982028,-80.9994146925,1
8353000000,44.999098156,-80.999414328,1
8360000000,44.9990980852,-80.9994137867,1
8375000000,44.9990980187,-80.9994132878,1
8404000000,44.999097943,-80.9994127315,1
8420000000,44.9990978827,-80.9994122961,1
8440000000,44.9990978097,-80.9994117778,1
8460000000,44.9990977306,-80.9994112265,1
8479000000,44.9990976567,-80.9994107214,1
8502000000,44.9990975726,-80.9994101562,1
8520000000,44.9990974899,-80.9994096111,1
8542000000,44.9990974004,-80.9994090316,1
8559000000,44.9990973259,-80.9994085571,1
8581000000,44.9990972312,-80.9994079643,1
8599000000,44.9990971383,-80.9994073929,1
8620000000,44.9990970378,-80.9994067856,1
8639000000,44.9990969441,-80.9994062298,1
8671000000,44.999096791,-80.9994053398,1
8681000000,44.9990967385,-80.9994050397,1
8699000000,44.9990966312,-80.9994044346,1
8719000000,44.9990965209,-80.9994038227,1
8739000000,44.9990964132,-80.9994032351,1
8763000000,44.9990962672,-80.9994024527,1
8780000000,44.9990961711,-80.9994019464,1
8807000000,44.9990959979,-80.9994010499,1
8830000000,44.9990959216,-80.9994006615,1
8840000000,44.9990957852,-80.9993999761,1
8860000000,44.9990956517,-80.9993993164,1
8880000000,44.9990955147,-80.9993986499,1
8899000000,44.9990953884,-80.9993980442,1
8919000000,44.9990952446,-80.9993973649,1
8939000000,44.9990950896,-80.9993966443,1
8961000000,44.9990949228,-80.9993958814,1
8979000000,44.9990947829,-80.9993952512,1
8999000000,44.9990946238,-80.9993945445,1
9019000000,44.9990944607,-80.9993938311,1
9058000000,44.9990942257,-80.9993928208,1
9061000000,44.9990941139,-80.9993923471,1
9079000000,44.9990939473,-80.9993916496,1
9100000000,44.999093777,-80.9993909458,1
9119000000,44.9990935843,-80.9993901608,1
9139000000,44.9990934061,-80.9993894439,1
9160000000,44.9990931949,-80.9993886061,1
9180000000,44.9990929984,-80.9993878373,1
9200000000,44.9990928078,-80.9993871006,1
9220000000,44.9990925927,-80.9993862791,1
9239000000,44.9990923939,-80.9993855293,1
9262000000,44.9990921588,-80.9993846534,1
9280000000,44.9990919515,-80.9993838902,1
9303000000,44.9990916952,-80.999382958,1
9319000000,44.9990915249,-80.9993823451,1
9366000000,44.9990909992,-80.9993804832,1
9367000000,44.9990909634,-80.9993803579,1
9380000000,44.9990907948,-80.9993797708,1
9399000000,44.9990905503,-80.9993789263,1
9419000000,44.9990903264,-80.9993781605,1
9446000000,44.9990899711,-80.9993769582,1
9459000000,44.9990898162,-80.9993764389,1
9486000000,44.999089528,-80.9993754804,1
9500000000,44.9990892749,-80.999374646,1
9525000000,44.9990889631,-80.9993736277,1
9539000000,44.9990887427,-80.999372914,1
9560000000,44.9990884351,-80.9993719256,1
9581000000,44.9990881508,-80.99937102,1
9599000000,44.9990878911,-80.9993701991,1
9619000000,44.9990875689,-80.9993691884,1
9640000000,44.9990872862,-80.999368309,1
9659000000,44.9990869843,-80.9993673766,1
9683000000,44.9990866161,-80.9993662487,1
9700000000,44.999086367,-80.9993654913,1
9721000000,44.9990860358,-80.9993644904,1
9739000000,44.999085732,-80.9993635782,1
9760000000,44.9990854081,-80.9993626112,1
9780000000,44.9990850799,-80.9993616371,1
9799000000,44.9990847643,-80.9993607052,1
9819000000,44.9990844282,-80.9993597172,1
9839000000,44.999084071,-80.9993586721,1
9859000000,44.9990837269,-80.9993576693,1
9880000000,44.9990833791,-80.9993566592,1
9900000000,44.9990830277,-80.9993556417,1
9919000000,44.9990826728,-80.9993546167,1
9939000000,44.9990823327,-80.999353636,1
9962000000,44.9990819352,-80.9993524919,1
9982000000,44.9990815523,-80.999351391,1
9999000000,44.9990812399,-80.9993504929,1
10019000000,44.9990808524,-80.9993493758,1
10039000000,44.9990804994,-80.9993483576,1
10060000000,44.9990801067,-80.9993472234,1
10061000000,45.7954295906,-80.3430825403,-1
10084000000,44.9990797305,-80.9993461348,1
10100000000,44.9990793525,-80.999345038,1
10120000000,44.9990789729,-80.9993439327,1
10140000000,44.9990785724,-80.9993427627,1
10160000000,44.9990782087,-80.999341696,1
10181000000,44.9990778055,-80.9993405077,1
10199000000,44.9990774395,-80.9993394241,1
10225000000,44.9990769374,-80.9993379281,1
10246000000,44.9990766083,-80.9993369416,1
10262000000,44.9990762594,-80.9993358898,1
10280000000,44.9990758907,-80.9993347714,1
10302000000,44.9990755022,-80.999333585,1
10319000000,44.9990751135,-80.999332389,1
10382000000,44.999074647,-80.9993309412,1
10384000000,44.99907387,-80.9993284969,1
10384000000,44.9990738506,-80.9993284353,1
10400000000,44.9990735596,-80.9993275081,1
10420000000,44.999073172,-80.9993262632,1
10441000000,44.9990727465,-80.9993248822,1
10460000000,44.9990723991,-80.9993237432,1
10483000000,44.9990719562,-80.9993222759,1
10499000000,44.9990716297,-80.9993211827,1
10523000000,44.9990712658,-80.9993199519,1
10539000000,44.9990708649,-80.9993185807,1
10559000000,44.9990705034,-80.9993173303,1
10579000000,44.9990701059,-80.9993159372,1
10591000000,44.9990697293,-80.9993145997,1
10619000000,44.9990693737,-80.9993133192,1
10641000000,44.9990689462,-80.9993117563,1
10660000000,44.9990685961,-80.9993104543,1
10686000000,44.9990682305,-80.9993090734,1
10701000000,44.9990678864,-80.9993077513,1
10723000000,44.9990674575,-80.9993060669,1
10739000000,44.9990671929,-80.9993050059,1
10759000000,44.9990668442,-80.9993035813,1
10781000000,44.9990664838,-80.9993020733,1
10800000000,44.9990661469,-80.9993006251,1
10823000000,44.9990657671,-80.9992989452,1
10840000000,44.9990654924,-80.9992976933,1
10865000000,44.9990651757,-80.9992962092,1
10885000000,44.9990647751,-80.9992942616,1
10909000000,44.9990644316,-80.9992925212,1
10919000000,44.9990642856,-80.9992917593,1
10940000000,44.9990639856,-80.999290149,1
10959000000,44.9990637221,-80.9992886801,1
10980000000,44.9990634398,-80.9992870431,1
11001000000,44.9990631669,-80.9992853924,1
11022000000,44.9990629038,-80.999283728,1
11039000000,44.9990626862,-80.9992822907,1
11059000000,44.9990624531,-80.9992806821,1
11082000000,44.9990622183,-80.9992789801,1
11112000000,44.9990619217,-80.9992766906,1
11123000000,44.9990617805,-80.9992755373,1
11150000000,44.9990615313,-80.9992733805,1
11159000000,44.999061431,-80.9992724623,1
11187000000,44.999061198,-80.9992701941,1
11200000000,44.9990610926,-80.9992690948,1
11228000000,44.999060888,-80.9992667971,1
11244000000,44.9990607693,-80.9992653404,1
11259000000,44.999060671,-80.9992640487,1
11279000000,44.9990605494,-80.9992623174,1
11300000000,44.9990604342,-80.9992604885,1
11319000000,44.9990603408,-80.9992588243,1
11339000000,44.9990602496,-80.9992569744,1
11360000000,44.9990601746,-80.9992552025,1
11381000000,44.9990601084,-80.9992533315,1
11399000000,44.9990600597,-80.9992516297,1
11424000000,44.99906002,-80.9992498292,1
11439000000,44.9990599921,-80.9992480197,1
11453000000,44.9990599769,-80.9992462923,1
11492000000,44.9990599738,-80.9992440992,1
11500000000,44.9990599829,-80.9992424464,1
11528000000,44.9990600153,-80.9992399547,1
11539000000,44.9990600351,-80.9992389353,1
11559000000,44.9990600833,-80.9992369825,1
11580000000,44.999060142,-80.9992351147,1
11600000000,44.9990602133,-80.9992332393,1
11620000000,44.9990602973,-80.9992313566,1
11640000000,44.9990603991,-80.999229372,1
11660000000,44.9990605091,-80.9992274749,1
11680000000,44.9990606255,-80.9992256664,1
11701000000,44.9990607676,-80.9992236605,1
11722000000,44.9990609317,-80.9992215513,1
11740000000,44.9990610692,-80.9992199163,1
11762000000,44.9990612426,-80.9992179869,1
11780000000,44.9990614385,-80.9992159545,1
11799000000,44.9990616276,-80.99921411,1
11821000000,44.9990618498,-80.9992120652,1
11840000000,44.9990620625,-80.9992102097,1
11863000000,44.9990623348,-80.9992079568,1
11882000000,44.9990625717,-80.9992060904,1
11903000000,44.9990628459,-80.9992040218,1
11919000000,44.9990630635,-80.9992024419,1
11939000000,44.9990633602,-80.9992003633,1
11959000000,44.9990636543,-80.9991983783,1
11979000000,44.9990639592,-80.9991963883,1
11999000000,44.9990642752,-80.9991943933,1
12024000000,44.9990646183,-80.9991922934,1
12040000000,44.9990649385,-80.9991903887,1
12059000000,44.9990652678,-80.9991884797,1
12081000000,44.9990656777,-80.9991861628,1
12107000000,44.9990660075,-80.9991843452,1
12119000000,44.9990663832,-80.9991823212,1
12139000000,44.9990667678,-80.9991802923,1
12159000000,44.9990671412,-80.9991783603,1
12180000000,44.9990675629,-80.9991762199,1
12200000000,44.9990679728,-80.9991741764,1
12220000000,44.9990683906,-80.999172128,1
12239000000,44.9990687946,-80.9991701773,1
12259000000,44.9990692488,-80.999168016,1
12279000000,44.9990696664,-80.9991660556,1
12299000000,44.9990701348,-80.9991638833,1
12320000000,44.9990705879,-80.9991618092,1
12339000000,44.999071047,-80.9991597297,1
12359000000,44.9990714884,-80.999157749,1
12379000000,44.9990719822,-80.9991555541,1
12400000000,44.9990724578,-80.9991534578,1
12419000000,44.9990729142,-80.999151461,1
12440000000,44.999073448,-80.9991491423,1
12460000000,44.9990739132,-80.999147134,1
12480000000,44.9990744069,-80.9991450139,1
12504000000,44.9990750043,-80.9991424617,1
12520000000,44.9990754053,-80.9991407551,1
12540000000,44.9990759095,-80.999138616,1
12560000000,44.9990764166,-80.9991364704,1
12581000000,44.9990769263,-80.999134318,1
12599000000,44.9990774384,-80.9991321587,1
12628000000,44.9990780555,-80.9991295583,1
12640000000,44.9990784684,-80.9991278191,1
12660000000,44.9990789857,-80.9991256384,1
12680000000,44.9990795302,-80.9991233408,1
12705000000,44.9990800497,-80.9991211449,1
12724000000,44.9990806218,-80.9991187205,1
12743000000,44.9990811682,-80.9991163975,1
12763000000,44.9990816887,-80.9991141771,1
12778000000,44.9990821047,-80.9991123948,1
12811000000,44.9990827542,-80.9991095997,1
12819000000,44.9990831433,-80.9991079164,1
12847000000,44.9990837387,-80.9991053261,1
12861000000,44.9990842034,-80.999103291,1
12880000000,44.9990846667,-80.999101249,1
12899000000,44.9990851798,-80.9990989717,1
12921000000,44.9990857671,-80.9990963418,1
12940000000,44.9990862245,-80.9990942753,1
12962000000,44.9990868057,-80.9990916239,1
12979000000,44.9990872327,-80.9990896564,1
13001000000,44.9990877321,-80.999087333,1
13020000000,44.9990882278,-80.9990850002,1
13041000000,44.9990887443,-80.9990825405,1
13060000000,44.9990892077,-80.9990803059,1
13081000000,44.9990897394,-80.9990777076,1
13099000000,44.9990901703,-80.9990755729,1
13133000000,44.9990909265,-80.9990717581,1
13139000000,44.9990911135,-80.9990708004,1
13159000000,44.9990915771,-80.9990683993,1
13198000000,44.9990922166,-80.9990650208,1
13200000000,44.9990924871,-80.9990635668,1
13218000000,44.9990929331,-80.9990611355,1
13239000000,44.9990933508,-80.9990588163,1
13261000000,44.9990938483,-80.9990559965,1
13286000000,44.9990943367,-80.9990531632,1
13312000000,44.9990948979,-80.9990498198,1
13319000000,44.9990950412,-80.9990489499,1
13339000000,44.9990954654,-80.9990463328,1
13365000000,44.9990958613,-80.9990438298,1
13388000000,44.9990964019,-80.9990403083,1
13399000000,44.9990966285,-80.9990387929,1
13420000000,44.9990969993,-80.999036259,1
13441000000,44.9990973792,-80.9990335873,1
13460000000,44.9990977316,-80.9990310324,1
13479000000,44.999098041,-80.9990287242,1
13499000000,44.9990983755,-80.9990261498,1
13528000000,44.9990988593,-80.9990222692,1
13540000000,44.9990990311,-80.9990208406,1
13559000000,44.9990993354,-80.9990182354,1
13580000000,44.9990996293,-80.9990156201,1
13601000000,44.9990999266,-80.9990128633,1
13621000000,44.9991002119,-80.9990100955,1
13640000000,44.9991004467,-80.9990077146,1
13659000000,44.999100697,-80.9990050598,1
13681000000,44.9991009359,-80.9990023953,1
13700000000,44.9991011632,-80.9989997211,1
13720000000,44.9991013891,-80.9989969031,1
13740000000,44.9991015822,-80.9989943444,1
13760000000,44.9991017827,-80.9989915067,1
13779000000,44.9991019438,-80.9989890662,1
13800000000,44.9991021189,-80.9989862096,1
13821000000,44.99910228,-80.9989833431,1
13839000000,44.9991024135,-80.9989807412,1
13860000000,44.9991025413,-80.9989779938,1
13881000000,44.9991026666,-80.9989749616,1
13900000000,44.9991027616,-80.9989723346,1
13922000000,44.9991028564,-80.9989692834,1
13939000000,44.9991029182,-80.9989669189,1
13960000000,44.9991029808,-80.99896399,1
13983000000,44.9991030318,-80.9989607722,1
14001000000,44.9991030569,-80.9989583872,1
14023000000,44.9991030727,-80.9989557153,1
14043000000,44.9991030744,-80.9989528959,1
14059000000,44.999103061,-80.9989502111,1
14080000000,44.9991030287,-80.9989472369,1
14100000000,44.9991029798,-80.9989443978,1
14120000000,44.9991029084,-80.9989414101,1
14141000000,44.9991028158,-80.9989384156,1
14160000000,44.9991027191,-80.998935844,1
14180000000,44.9991025855,-80.9989328382,1
14200000000,44.9991024525,-80.9989302572,1
14219000000,44.9991022756,-80.9989272411,1
14243000000,44.9991020544,-80.9989239317,1
14269000000,44.9991017697,-80.9989201835,1
14279000000,44.9991016504,-80.99891874,1
14300000000,44.9991013817,-80.9989157058,1
14325000000,44.9991010152,-80.9989119439,1
14354000000,44.9991005619,-80.9989077421,1
14360000000,44.9991004789,-80.9989070171,1
14390000000,44.999100097,-80.9989038253,1
14399000000,44.9990997836,-80.9989013571,1
14419000000,44.999099374,-80.9988983064,1
14444000000,44.9990988971,-80.998894963,1
14459000000,44.9990985261,-80.9988924905,1
14498000000,44.9990976402,-80.9988869611,1
14501000000,44.999097567,-80.9988865245,1
14520000000,44.999097092,-80.9988837588,1
14544000000,44.999096438,-80.9988801194,1
14561000000,44.9990960022,-80.9988777903,1
14580000000,44.9990954673,-80.9988750245,1
14603000000,44.9990948844,-80.9988721133,1
14620000000,44.9990942509,-80.9988690566,1
14639000000,44.9990936595,-80.9988662913,1
14663000000,44.9990929216,-80.9988629435,1
14679000000,44.9990923607,-80.9988604694,1
14699000000,44.9990916842,-80.9988575593,1
14722000000,44.9990909204,-80.9988543582,1
14739000000,44.9990902805,-80.9988517392,1
14759000000,44.9990895546,-80.9988488293,1
14780000000,44.9990888133,-80.9988459192,1
14799000000,44.9990880579,-80.9988430086,1
14826000000,44.9990872891,-80.9988400971,1
14843000000,44.9990863896,-80.9988367474,1
14862000000,44.9990856354,-80.9988339785,1
14880000000,44.9990849125,-80.9988313536,1
14901000000,44.9990840598,-80.9988282886,1
14919000000,44.9990832808,-80.9988255126,1
14941000000,44.999082413,-80.9988224404,1
14960000000,44.9990816224,-80.9988196569,1
14992000000,44.9990801964,-80.9988146659,1
15000000000,44.9990799436,-80.9988137837,1
15019000000,44.999079099,-80.9988108393,1
15044000000,44.999078083,-80.998807298,1
15060000000,44.9990774052,-80.9988049319,1
15080000000,44.9990765581,-80.9988019678,1
15100000000,44.99907567,-80.9987988474,1
15121000000,44.9990748265,-80.9987958672,1
15139000000,44.9990740696,-80.9987931777,1
15160000000,44.9990731902,-80.998790031,1
15185000000,44.999072192,-80.9987864218,1
15201000000,44.9990714901,-80.9987838567,1
15219000000,44.9990707113,-80.9987809809,1
15240000000,44.9990698991,-80.9987779431,1
15260000000,44.9990690953,-80.9987748942,1
15280000000,44.9990683008,-80.9987718337,1
15300000000,44.9990675165,-80.9987687612,1
15320000000,44.999066705,-80.9987655219,1
15352000000,44.9990659058,-80.9987622692,1
15359000000,44.9990652318,-80.9987594705,1
15380000000,44.9990644964,-80.9987563484,1
15406000000,44.9990635269,-80.9987521136,1
15425000000,44.9990628612,-80.9987491191,1
15440000000,44.9990623803,-80.9987469054,1
15460000000,44.9990616748,-80.9987435733,1
15479000000,44.9990610526,-80.9987405462,1
15500000000,44.9990603843,-80.9987371876,1
15520000000,44.999059798,-80.998734137,1
15539000000,44.9990592003,-80.9987309136,1
15558000000,44.9990586517,-80.9987278398,1
15579000000,44.9990580677,-80.9987244291,1
15599000000,44.9990575341,-80.9987211679,1
15619000000,44.9990570225,-80.9987178931,1
15639000000,44.9990565329,-80.9987146027,1
15660000000,44.9990560645,-80.9987112949,1
15682000000,44.9990555765,-80.9987076367,1
15702000000,44.9990551652,-80.9987042971,1
15723000000,44.9990547579,-80.9987007791,1
15739000000,44.9990544443,-80.9986979232,1
15760000000,44.9990540834,-80.9986943849,1
15788000000,44.9990537699,-80.9986910036,1
15800000000,44.9990534976,-80.998687782,1
15819000000,44.9990532358,-80.9986843814,1
15840000000,44.9990530011,-80.9986809709,1
15864000000,44.9990527582,-80.9986768653,1
15884000000,44.9990525864,-80.9986734345,1
15899000000,44.9990524677,-80.9986706844,1
15920000000,44.9990523429,-80.99866724,1
15945000000,44.9990522106,-80.9986630932,1
15959000000,44.9990521357,-80.9986603175,1
15979000000,44.9990520717,-80.998657015,1
15999000000,44.999052032,-80.998653356,1
16025000000,44.9990520361,-80.9986488164,1
16040000000,44.9990520734,-80.9986463731,1
16059000000,44.9990521308,-80.9986430438,1
16079000000,44.9990522582,-80.9986393683,1
16099000000,44.9990524047,-80.9986358606,1
16119000000,44.9990525971,-80.9986323513,1
16139000000,44.9990528071,-80.9986290153,1
16163000000,44.9990530712,-80.9986246208,1
16180000000,44.9990532435,-80.9986218079,1
16199000000,44.9990534657,-80.9986184594,1
16220000000,44.9990537524,-80.9986147562,1
16239000000,44.9990540661,-80.9986112286,1
16261000000,44.9990544285,-80.9986075234,1
16280000000,44.9990547623,-80.9986041677,1
16301000000,44.9990551287,-80.9986006325,1
16319000000,44.9990555275,-80.9985970968,1
16339000000,44.9990559372,-80.9985937384,1
16368000000,44.9990566249,-80.9985884256,1
16379000000,44.9990568619,-80.9985866475,1
16399000000,44.9990573463,-80.9985830833,1
16414000000,44.9990579026,-80.9985791595,1
16440000000,44.999058438,-80.9985755914,1
16460000000,44.9990589653,-80.9985721944,1
16480000000,44.9990595303,-80.9985686068,1
16499000000,44.9990600825,-80.9985651911,1
16523000000,44.9990608056,-80.9985608689,1
16539000000,44.9990613012,-80.998557982,1
16555000000,44.9990619318,-80.9985543673,1
16580000000,44.9990626083,-80.9985505712,1
16599000000,44.9990632318,-80.9985471365,1
16619000000,44.9990639328,-80.9985433399,1
16640000000,44.9990646109,-80.9985397236,1
16659000000,44.9990652979,-80.998536107,1
16680000000,44.999065993,-80.9985324896,1
16699000000,44.9990666598,-80.9985290523,1
16720000000,44.9990674032,-80.9985252521,1
16739000000,44.9990681167,-80.9985216317,1
16764000000,44.9990688349,-80.99851801,1
16780000000,44.9990695569,-80.9985143868,1
16799000000,44.9990702823,-80.9985107621,1
16820000000,44.9990710099,-80.9985071355,1
16839000000,44.9990717381,-80.9985035063,1
16860000000,44.9990724669,-80.9984998749,1
16880000000,44.9990731953,-80.9984962408,1
16908000000,44.9990742129,-80.9984911483,1
16920000000,44.9990746475,-80.9984889638,1
16940000000,44.9990753691,-80.9984853202,1
16959000000,44.9990760506,-80.9984818552,1
16979000000,44.9990767983,-80.9984780214,1
17000000000,44.9990775041,-80.9984743657,1
17020000000,44.9990782022,-80.9984707053,1
17039000000,44.9990788573,-80.9984672233,1
17061000000,44.9990796058,-80.9984631859,1
17081000000,44.9990802425,-80.9984596943,1
17100000000,44.9990809345,-80.9984558291,1
17119000000,44.9990815166,-80.9984525109,1
17139000000,44.9990821518,-80.9984488187,1
17159000000,44.9990827739,-80.9984451208,1
17180000000,44.9990834113,-80.9984412316,1
17200000000,44.9990840017,-80.9984375209,1
17223000000,44.9990846326,-80.998433432,1
17239000000,44.9990851343,-80.9984300813,1
17259000000,44.9990856484,-80.998426539,1
17280000000,44.9990861965,-80.998422617,1
17304000000,44.9990868213,-80.9984179391,1
17319000000,44.9990871818,-80.9984151279,1
17343000000,44.9990877352,-80.9984106232,1
17360000000,44.9990880874,-80.9984076153,1
17380000000,44.9990885299,-80.9984036622,1
17399000000,44.9990889096,-80.9984000806,1
17424000000,44.9990893057,-80.9983961161,1
17439000000,44.9990896262,-80.9983927132,1
17460000000,44.999089993,-80.9983885491,1
17480000000,44.999090286,-80.998384948,1
17499000000,44.9990905711,-80.9983811527,1
17519000000,44.9990908195,-80.9983775426,1
17540000000,44.9990910685,-80.9983735477,1
17563000000,44.9990913198,-80.9983689766,1
17579000000,44.9990914585,-80.9983661168,1
17605000000,44.9990916509,-80.9983615368,1
17619000000,44.9990917653,-80.9983582897,1
17642000000,44.9990918865,-80.9983540842,1
17659000000,44.9990919631,-80.9983506411,1
17679000000,44.9990920244,-80.9983468134,1
17699000000,44.9990920592,-80.9983431755,1
17721000000,44.9990920708,-80.9983393448,1
17739000000,44.9990920571,-80.998335513,1
17760000000,44.9990920159,-80.998331489,1
17780000000,44.9990919511,-80.9983276564,1
17800000000,44.9990918611,-80.9983238239,1
17819000000,44.9990917527,-80.9983201834,1
17839000000,44.9990916152,-80.9983163522,1
17860000000,44.9990914448,-80.9983123308,1
17880000000,44.9990912475,-80.9983083111,1
17900000000,44.9990910348,-80.9983044847,1
17920000000,44.9990908115,-80.9983008514,1
17939000000,44.9990905681,-80.9982972204,1
17965000000,44.9990901906,-80.998292064,1
17979000000,44.999089979,-80.9982893923,1
18001000000,44.9990896401,-80.9982853879,1
18020000000,44.9990893109,-80.9982817683,1
18040000000,44.9990889489,-80.9982779609,1
18059000000,44.9990885671,-80.9982741571,1
18080000000,44.9990881457,-80.9982701669,1
18099000000,44.9990877253,-80.9982663705,1
18119000000,44.9990873099,-80.9982627674,1
18139000000,44.9990868564,-80.9982589783,1
18160000000,44.9990863862,-80.998255193,1
18179000000,44.9990859003,-80.9982514117,1
18199000000,44.9990854246,-80.9982478231,1
18219000000,44.9990849092,-80.9982440495,1
18240000000,44.9990843525,-80.9982400915,1
18259000000,44.9990838086,-80.9982363258,1
18280000000,44.999083224,-80.9982323758,1
18301000000,44.999082684,-80.9982288053,1
18321000000,44.9990820756,-80.9982248626,1
18339000000,44.9990815153,-80.9982212986,1
18382000000,44.9990802463,-80.9982134307,1
18382000000,44.9990802156,-80.9982132435,1
18400000000,44.9990796905,-80.9982100628,1
18419000000,44.9990790657,-80.9982063233,1
18440000000,44.9990784025,-80.9982023996,1
18461000000,44.999077797,-80.9981988517,1
18479000000,44.9990771872,-80.9981953055,1
18499000000,44.9990765095,-80.9981913877,1
18519000000,44.9990758938,-80.9981878442,1
18540000000,44.999075211,-80.9981839289,1
18560000000,44.99907456,-80.9981802009,1
18579000000,44.9990739418,-80.9981766597,1
18613000000,44.9990729029,-80.9981706956,1
18625000000,44.9990725147,-80.9981684589,1
18643000000,44.9990718379,-80.9981645444,1
18665000000,44.9990713246,-80.9981615615,1
18680000000,44.9990706547,-80.9981576456,1
18700000000,44.999070053,-80.9981541018,1
18720000000,44.9990694245,-80.9981503704,1
18741000000,44.9990687404,-80.9981462643,1
18772000000,44.9990678518,-80.9981408484,1
18780000000,44.9990675794,-80.9981391669,1
18799000000,44.9990670098,-80.9981356155,1
18819000000,44.9990664189,-80.998131875,1
18844000000,44.9990656932,-80.9981271965,1
18859000000,44.9990652656,-80.9981243875,1
18880000000,44.9990646775,-80.9981204525,1
18899000000,44.9990641294,-80.998116702,1
18919000000,44.9990636203,-80.9981131364,1
18936000000,44.9990630452,-80.9981090045,1
18968000000,44.9990623865,-80.9981041167,1
18979000000,44.9990620908,-80.9981018589,1
19008000000,44.9990613987,-80.9980963979,1
19019000000,44.9990611447,-80.9980943247,1
19040000000,44.9990606734,-80.9980903641,1
19059000000,44.9990602629,-80.9980867775,1
19082000000,44.9990597665,-80.9980822428,1
19099000000,44.9990594303,-80.9980790279,1
19120000000,44.9990590519,-80.9980752433,1
19139000000,44.9990586913,-80.9980714553,1
19166000000,44.9990583009,-80.998067095,1
19186000000,44.9990579369,-80.9980627311,1
19202000000,44.9990577131,-80.9980598834,1
19219000000,44.9990574592,-80.9980564644,1
19239000000,44.9990571962,-80.998052663,1
19259000000,44.9990569436,-80.9980486697,1
19281000000,44.9990567024,-80.9980444833,1
19300000000,44.999056524,-80.998041056,1
19320000000,44.9990563469,-80.9980372464,1
19339000000,44.99905619,-80.9980334354,1
19363000000,44.9990560418,-80.9980292422,1
19381000000,44.9990559343,-80.9980256195,1
19399000000,44.9990558511,-80.9980221869,1
19419000000,44.9990557759,-80.9980181823,1
19440000000,44.9990557225,-80.9980141761,1
19464000000,44.9990556945,-80.998009789,1
19479000000,44.999055691,-80.9980069277,1
19503000000,44.9990557097,-80.9980023501,1
19534000000,44.9990557704,-80.9979970106,1
19541000000,44.9990558023,-80.997995104,1
19567000000,44.9990559143,-80.9979899576,1
19580000000,44.9990559761,-80.9979876711,1
19600000000,44.9990560961,-80.9979838613,1
19619000000,44.999056237,-80.9979800531,1
19640000000,44.9990563973,-80.9979762477,1
19659000000,44.9990565693,-80.9979726356,1
19691000000,44.9990568996,-80.9979665575,1
19707000000,44.9990570699,-80.9979637104,1
19722000000,44.9990572512,-80.9979608647,1
19741000000,44.999057509,-80.9979570727,1
19759000000,44.9990577699,-80.9979534724,1
19779000000,44.9990580458,-80.9979498744,1
19800000000,44.9990583838,-80.9979457114,1
19825000000,44.9990587743,-80.9979411737,1
19844000000,44.9990590989,-80.9979375843,1
19860000000,44.9990593827,-80.9979345636,1
19881000000,44.9990597881,-80.9979304132,1
19899000000,44.999060113,-80.9979272084,1
19921000000,44.9990605679,-80.9979228758,1
19939000000,44.9990609355,-80.9979194875,1
19960000000,44.999061334,-80.9979159133,1
19980000000,44.9990618081,-80.9979117778,1
19999000000,44.9990622281,-80.9979082088,1
20000000000,44.578071119,-81.4808046831,-1
20023000000,44.9990627719,-80.9979037039,1
20040000000,44.9990631423,-80.9979007026,1
20064000000,44.9990637329,-80.9978960162,1
20080000000,44.9990640938,-80.9978932061,1
20099000000,44.9990645819,-80.9978894612,1
20118000000,44.9990650774,-80.9978857182,1
20139000000,44.9990655543,-80.9978821642,1
20160000000,44.9990660881,-80.997878238,1
20179000000,44.9990665765,-80.9978746874,1
20200000000,44.9990671217,-80.9978707646,1
20217000000,44.9990676457,-80.99786703,1
20239000000,44.9990681467,-80.9978634832,1
20260000000,44.9990687029,-80.9978595638,1
20282000000,44.999069314,-80.9978552719,1
20300000000,44.9990697667,-80.9978521001,1
20319000000,44.9990702994,-80.9978483687,1
20342000000,44.9990708853,-80.9978442642,1
20359000000,44.9990713642,-80.9978409062,1
20384000000,44.9990720016,-80.9978364286,1
20401000000,44.9990724251,-80.9978334432,1
20420000000,44.9990729523,-80.9978297111,1
20440000000,44.9990734764,-80.9978259783,1
20459000000,44.9990739968,-80.9978222446,1
20483000000,44.9990745131,-80.99781851,1
20499000000,44.9990750244,-80.9978147742,1
20520000000,44.9990755308,-80.9978110372,1
20539000000,44.9990760315,-80.9978072989,1
20555000000,44.999076526,-80.9978035592,1
20585000000,44.9990771338,-80.9977988822,1
20600000000,44.9990775163,-80.9977958874,1
20619000000,44.9990779399,-80.9977925167,1
20636000000,44.9990784247,-80.9977885821,1
20658000000,44.9990788764,-80.9977848327,1
20680000000,44.9990793181,-80.997781081,1
20699000000,44.9990797491,-80.997777327,1
20719000000,44.9990801691,-80.9977735708,1
20740000000,44.9990805781,-80.9977698123,1
20759000000,44.999080975,-80.9977660514,1
20779000000,44.9990813593,-80.9977622881,1
20799000000,44.9990817128,-80.9977587107,1
20819000000,44.9990820898,-80.9977547543,1
20839000000,44.9990824352,-80.9977509839,1
20860000000,44.9990827832,-80.9977470224,1
20890000000,44.9990832397,-80.997741548,1
20899000000,44.9990833744,-80.997739848,1
20927000000,44.99908379,-80.9977343674,1
20940000000,44.999083952,-80.9977320982,1
20967000000,44.999084273,-80.9977273686,1
20984000000,44.9990844532,-80.9977245293,1
21013000000,44.9990848186,-80.9977182794,1
21020000000,44.9990848903,-80.9977169531,1
21040000000,44.999085093,-80.9977129726,1
21060000000,44.9990852609,-80.9977093698,1
21079000000,44.9990854217,-80.997705576,1
21099000000,44.9990855655,-80.9977017809,1
21119000000,44.9990856911,-80.9976979845,1
21139000000,44.9990857994,-80.9976941872,1
21159000000,44.9990858904,-80.9976903889,1
21181000000,44.9990859668,-80.9976863996,1
21200000000,44.9990860198,-80.9976827901,1
21220000000,44.9990860589,-80.9976789896,1
21240000000,44.9990860803,-80.9976751891,1
21259000000,44.9990860837,-80.9976713885,1
21280000000,44.9990860705,-80.9976675876,1
21300000000,44.9990860396,-80.997663787,1
21319000000,44.9990859924,-80.9976599864,1
21342000000,44.9990859167,-80.9976556163,1
21362000000,44.9990858343,-80.9976518167,1
21379000000,44.9990857558,-80.9976487776,1
21399000000,44.9990856378,-80.9976447894,1
21419000000,44.9990855093,-80.997640992,1
21439000000,44.9990853724,-80.9976373855,1
21460000000,44.9990852051,-80.9976334005,1
21480000000,44.9990850299,-80.9976296065,1
21499000000,44.9990848394,-80.9976258138,1
21524000000,44.9990846344,-80.9976220224,1
21536000000,44.9990844151,-80.9976182325,1
21559000000,44.9990841935,-80.9976146335,1
21581000000,44.9990839341,-80.9976106573,1
21599000000,44.9990836731,-80.9976068723,1
21627000000,44.9990833421,-80.9976023325,1
21634000000,44.999083111,-80.9975993073,1
21660000000,44.999082811,-80.9975955274,1
21678000000,44.9990824675,-80.9975913714,1
21699000000,44.9990821929,-80.9975881614,1
21720000000,44.9990818428,-80.9975841977,1
21739000000,44.9990814991,-80.9975804244,1
21759000000,44.999081146,-80.9975766527,1
21779000000,44.999080784,-80.9975728825,1
21814000000,44.9990801498,-80.9975664765,1
21821000000,44.9990800357,-80.9975653464,1
21840000000,44.9990796506,-80.9975615804,1
21861000000,44.999079239,-80.9975576274,1
21880000000,44.9990788409,-80.9975538638,1
21899000000,44.9990784776,-80.9975504775,1
21918000000,44.9990780687,-80.997546716,1
21940000000,44.9990776347,-80.9975427674,1
21960000000,44.9990772173,-80.9975390075,1
21980000000,44.9990767964,-80.9975352484,1
22000000000,44.9990763727,-80.9975314899,1
22025000000,44.9990758394,-80.9975267924,1
22039000000,44.9990755179,-80.9975239742,1
22059000000,44.9990751097,-80.9975204047,1
22086000000,44.9990746366,-80.9975162717,1
22100000000,44.9990742068,-80.9975125143,1
22119000000,44.9990737987,-80.9975089447,1
22140000000,44.99907337,-80.997505187,1
22161000000,44.9990729217,-80.997501241,1
22180000000,44.9990725178,-80.9974976704,1
22202000000,44.9990720949,-80.9974939114,1
22219000000,44.9990716753,-80.9974901518,1
22246000000,44.9990711769,-80.997485639,1
22258000000,44.9990708685,-80.9974828179,1
22280000000,44.9990704413,-80.9974788674,1
22300000000,44.9990700397,-80.9974751039,1
22319000000,44.9990696633,-80.9974715275,1
22339000000,44.9990692537,-80.9974675734,1
22359000000,44.9990688893,-80.9974639947,1
22378000000,44.9990685128,-80.9974602262,1
22398000000,44.9990681257,-80.9974562678,1
22419000000,44.9990677658,-80.9974524963,1
22439000000,44.9990674141,-80.9974487233,1
22460000000,44.9990670715,-80.9974449487,1
22480000000,44.9990667385,-80.9974411724,1
22500000000,44.9990663994,-80.9974372056,1
22526000000,44.9990661024,-80.9974336151,1
22540000000,44.9990658003,-80.9974298339,1
22560000000,44.9990655093,-80.9974260513,1
22579000000,44.9990652431,-80.9974224562,1
22599000000,44.9990649624,-80.997418481,1
22622000000,44.9990646824,-80.9974143146,1
22639000000,44.9990644647,-80.9974109042,1
22661000000,44.9990642247,-80.9974069238,1
22680000000,44.9990640209,-80.9974033211,1
22701000000,44.9990638104,-80.9973993376,1
22719000000,44.9990636335,-80.9973957319,1
22749000000,44.9990634617,-80.9973919356,1
22759000000,44.9990633118,-80.9973883276,1
22779000000,44.9990631625,-80.9973843388,1
22799000000,44.9990630416,-80.9973807292,1
22819000000,44.9990629241,-80.9973767383,1
22843000000,44.9990628201,-80.9973725565,1
22860000000,44.9990627496,-80.9973691343,1
22880000000,44.9990626869,-80.9973653313,1
22900000000,44.9990626403,-80.9973615279,1
22920000000,44.9990626103,-80.9973577243,1
22943000000,44.9990625969,-80.9973531598,1
22959000000,44.999062601,-80.997350307,1
22980000000,44.9990626229,-80.9973463131,1
22999000000,44.9990626594,-80.9973426998,1
23020000000,44.9990627175,-80.9973387069,1
23040000000,44.9990627913,-80.9973349046,1
23059000000,44.9990628778,-80.997331293,1
23079000000,44.9990629918,-80.9973273023,1
23100000000,44.9990631189,-80.9973235028,1
23120000000,44.999063264,-80.9973197046,1
23142000000,44.9990634346,-80.9973157176,1
23166000000,44.9990636684,-80.9973107836,1
23180000000,44.9990638,-80.9973083181,1
23200000000,44.9990640196,-80.9973045267,1
23219000000,44.9990642426,-80.9973009266,1
23241000000,44.9990645202,-80.9972967605,1
23259000000,44.9990647779,-80.9972931654,1
23280000000,44.9990650667,-80.9972893828,1
23300000000,44.9990653736,-80.9972856032,1
23339000000,44.9990658831,-80.9972797504,1
23340000000,44.9990660389,-80.9972780525,1
23357000000,44.9990663977,-80.9972742818,1
23384000000,44.9990668698,-80.9972695728,1
23412000000,44.9990673888,-80.9972646814,1
23425000000,44.9990675546,-80.9972631775,1
23439000000,44.9990679801,-80.9972594202,1
23462000000,44.9990684443,-80.997255479,1
23473000000,44.9990689733,-80.9972511669,1
23500000000,44.9990693774,-80.9972479829,1
23524000000,44.9990699921,-80.9972433057,1
23540000000,44.9990703723,-80.9972405024,1
23559000000,44.9990708924,-80.9972367681,1
23582000000,44.9990714819,-80.9972326652,1
23600000000,44.9990719775,-80.997229312,1
23621000000,44.9990725993,-80.9972252185,1
23640000000,44.9990731211,-80.9972218731,1
23659000000,44.9990736847,-80.9972183459,1
23678000000,44.9990743529,-80.9972142666,1
23699000000,44.9990749438,-80.9972107481,1
23715000000,44.9990755468,-80.9972072335,1
23746000000,44.9990762272,-80.9972033537,1
23765000000,44.9990770897,-80.997198557,1
23780000000,44.9990775967,-80.9971957931,1
23800000000,44.9990782819,-80.9971921111,1
23821000000,44.9990789817,-80.9971884343,1
23842000000,44.9990797282,-80.9971845781,1
23859000000,44.9990803774,-80.9971812762,1
23880000000,44.999081109,-80.9971776115,1
23903000000,44.9990819625,-80.9971734018,1
23920000000,44.9990826018,-80.9971702936,1
23939000000,44.999083363,-80.9971666405,1
23959000000,44.9990841329,-80.997162991,1
23980000000,44.9990849113,-80.997159345,1
24017000000,44.9990856978,-80.9971557023,1
24019000000,44.999086452,-80.9971522448,1
24039000000,44.9990872532,-80.9971486085,1
24076000000,44.999088346,-80.9971437043,1
24084000000,44.9990888767,-80.997141345,1
24098000000,44.9990896986,-80.9971377177,1
24119000000,44.9990905263,-80.9971340929,1
24141000000,44.9990914852,-80.9971299277,1
24162000000,44.9990923671,-80.9971261276,1
24180000000,44.9990930851,-80.9971230531,1
24203000000,44.9990940194,-80.9971190769,1
24220000000,44.9990947881,-80.9971158255,1
24239000000,44.999095647,-80.9971122152,1
24261000000,44.9990965084,-80.997108606,1
24280000000,44.9990973742,-80.9971049989,1
24312000000,44.9990983301,-80.9971010328,1
24322000000,44.9990991587,-80.9970976089,1
24340000000,44.9990999897,-80.9970941863,1
24360000000,44.9991008666,-80.9970905845,1
24380000000,44.9991017896,-80.9970868038,1
24399000000,44.9991026263,-80.9970833839,1
24420000000,44.9991035526,-80.9970796048,1
24443000000,44.9991044361,-80.9970760063,1
24465000000,44.9991054976,-80.9970716888,1
24480000000,44.9991061617,-80.9970689907,1
24499000000,44.9991070477,-80.9970653935,1
24520000000,44.9991079343,-80.9970617967,1
24543000000,44.9991089543,-80.9970576605,1
24563000000,44.9991097526,-80.9970544236,1
24580000000,44.9991106395,-80.9970508269,1
24603000000,44.9991115264,-80.9970472304,1
24624000000,44.9991125907,-80.9970429145,1
24640000000,44.9991132557,-80.9970402171,1
24659000000,44.9991140976,-80.9970368001,1
24680000000,44.9991150277,-80.9970330232,1
24700000000,44.9991159127,-80.9970294259,1
24720000000,44.9991167969,-80.9970258281,1
24739000000,44.9991176363,-80.99702241,1
24764000000,44.9991185629,-80.9970186316,1
24780000000,44.9991194886,-80.9970148528,1
24800000000,44.9991203251,-80.9970114334,1
24820000000,44.9991212047,-80.9970078336,1
24840000000,44.9991220832,-80.9970042333,1
24865000000,44.9991232234,-80.9969995523,1
24887000000,44.9991238367,-80.9969970312,1
24900000000,44.9991247117,-80.9969934294,1
24925000000,44.9991257602,-80.9969891064,1
24940000000,44.9991265019,-80.9969860439,1
24959000000,44.9991272864,-80.9969828008,1
24980000000,44.9991282004,-80.9969790167,1
24999000000,44.9991290698,-80.9969754122,1
25021000000,44.9991299814,-80.996971627,1
25039000000,44.9991308052,-80.9969682018,1
25064000000,44.9991318877,-80.9969636943,1
25080000000,44.9991325363,-80.9969609895,1
25100000000,44.9991334005,-80.9969573826,1
25120000000,44.9991342639,-80.9969537755,1
25147000000,44.9991352133,-80.9969498075,1
25159000000,44.9991359897,-80.9969465608,1
25182000000,44.9991368526,-80.9969429535,1
25200000000,44.9991377155,-80.9969393463,1
25220000000,44.9991385784,-80.996935739,1
25239000000,44.9991393982,-80.9969323121,1
25260000000,44.9991403043,-80.9969285246,1
25279000000,44.9991411672,-80.9969249174,1
25299000000,44.9991419875,-80.9969214909,1
25320000000,44.9991429381,-80.9969175237,1
25349000000,44.9991439334,-80.996913377,1
25365000000,44.9991446269,-80.9969104928,1
25379000000,44.9991454516,-80.9969070685,1
25399000000,44.9991463648,-80.9969032846,1
25419000000,44.9991471928,-80.9968998619,1
25440000000,44.99914811,-80.9968960799,1
25465000000,44.9991492057,-80.9968915795,1
25478000000,44.9991498213,-80.9968890603,1
25502000000,44.9991508804,-80.9968847435,1
25520000000,44.999151678,-80.9968815076,1
25542000000,44.9991526126,-80.9968777343,1
25559000000,44.9991534171,-80.9968745019,1
25579000000,44.9991543152,-80.9968709124,1
25600000000,44.9991552176,-80.996867325,1
25620000000,44.99915617,-80.9968635608,1
25640000000,44.9991570363,-80.9968601574,1
25659000000,44.9991579074,-80.9968567565,1
25679000000,44.9991588298,-80.9968531795,1
25699000000,44.9991598046,-80.9968494268,1
25720000000,44.9991607394,-80.9968458565,1
25744000000,44.999161916,-80.9968413976,1
25759000000,44.9991625799,-80.9968389033,1
25780000000,44.9991636295,-80.996834987,1
25802000000,44.9991646391,-80.9968312531,1
25820000000,44.9991655111,-80.9968280562,1
25841000000,44.9991665369,-80.9968243312,1
25859000000,44.9991674729,-80.9968209653,1
25880000000,44.9991685163,-80.9968172502,1
25901000000,44.9991694688,-80.9968138937,1
25919000000,44.9991704802,-80.9968103655,1
25946000000,44.9991718603,-80.9968056112,1
25974000000,44.9991732065,-80.9968010431,1
25981000000,44.9991736241,-80.9967996396,1
25995000000,44.9991746226,-80.9967963102,1
26019000000,44.9991756304,-80.9967929863,1
26044000000,44.9991769719,-80.9967886226,1
26059000000,44.9991778395,-80.996785835,1
26079000000,44.9991788785,-80.9967825308,1
26099000000,44.9991800395,-80.9967788863,1
26120000000,44.9991811568,-80.9967754231,1
26139000000,44.9991822294,-80.9967721401,1
26159000000,44.9991833699,-80.9967686919,1
26179000000,44.99918458,-80.9967650798,1
26199000000,44.9991856871,-80.9967618201,1
26221000000,44.9991869833,-80.996758055,1
26239000000,44.9991880545,-80.9967549818,1
26259000000,44.9991892565,-80.9967515756,1
26284000000,44.9991907768,-80.9967473305,1
26299000000,44.9991916986,-80.9967447903,1
26319000000,44.999192939,-80.9967414116,1
26339000000,44.9991941923,-80.9967380424,1
26359000000,44.9991955224,-80.9967345153,1
26384000000,44.9991970603,-80.9967304978,1
26399000000,44.9991980288,-80.9967279925,1
26420000000,44.999199397,-80.9967244946,1
26440000000,44.9992007187,-80.9967211779,1
26458000000,44.9992020529,-80.9967178711,1
26486000000,44.9992038068,-80.9967135878,1
26501000000,44.999204966,-80.9967107975,1
26520000000,44.9992061348,-80.996708015,1
26540000000,44.9992075222,-80.9967047519,1
26560000000,44.9992089934,-80.9967013378,1
26579000000,44.9992102645,-80.9966984201,1
26609000000,44.9992116888,-80.9966951886,1
26619000000,44.9992131252,-80.996691968,1
26640000000,44.9992147243,-80.9966884424,1
26660000000,44.9992161205,-80.9966854108,1
26680000000,44.9992176004,-80.9966822293,1
26699000000,44.999219019,-80.9966792189,1
26719000000,44.9992206006,-80.996675904,1
26755000000,44.9992233441,-80.9966702521,1
26760000000,44.9992237284,-80.9966694703,1
26780000000,44.9992252736,-80.9966663506,1
26804000000,44.9992270606,-80.9966627736,1
26820000000,44.9992283155,-80.9966602961,1
26841000000,44.9992299784,-80.9966570612,1
26860000000,44.999231573,-80.9966539914,1
26883000000,44.9992333417,-80.9966506293,1
26900000000,44.9992347986,-80.9966478888,1
26919000000,44.9992362652,-80.9966451587,1
26940000000,44.9992379882,-80.9966419861,1
26966000000,44.9992398063,-80.9966386765,1
26979000000,44.9992412204,-80.9966361292,1
27004000000,44.9992432293,-80.9966325473,1
27033000000,44.9992457595,-80.9966280901,1
27046000000,44.9992463549,-80.9966270558,1
27061000000,44.9992480627,-80.9966241084,1
27080000000,44.9992497796,-80.9966211714,1
27105000000,44.9992517671,-80.9966178088,1
27121000000,44.9992533315,-80.9966151878,1
27139000000,44.9992549913,-80.9966124313,1
27160000000,44.9992568359,-80.9966093965,1
27179000000,44.9992584253,-80.9966068053,1
27203000000,44.9992606451,-80.9966032212,1
27225000000,44.99926261,-80.9966000813,1
27243000000,44.9992642256,-80.9965975222,1
27260000000,44.9992657576,-80.9965951128,1
27280000000,44.9992675673,-80.9965922874,1
27304000000,44.9992692939,-80.9965896127,1
27322000000,44.9992713935,-80.9965863869,1
27340000000,44.9992729516,-80.9965840107,1
27373000000,44.9992759908,-80.9965794169,1
27380000000,44.9992767304,-80.996578307,1
27400000000,44.9992784913,-80.9965756765,1
27426000000,44.999280258,-80.9965730538,1
27440000000,44.9992822175,-80.9965701639,1
27460000000,44.9992840901,-80.9965674205,1
27476000000,44.9992860615,-80.9965645471,1
27504000000,44.9992878527,-80.9965619572,1
27520000000,44.9992897426,-80.9965592375,1
27539000000,44.9992916379,-80.9965565248,1
27565000000,44.9992935384,-80.9965538194,1
27579000000,44.9992954441,-80.9965511213,1
27600000000,44.9992974504,-80.9965482956,1
27619000000,44.99929927,-80.9965457452,1
27639000000,44.9993010937,-80.9965432006,1
27661000000,44.9993031139,-80.9965403944,1
27679000000,44.9993050421,-80.996537728,1
27710000000,44.9993070709,-80.9965349342,1
27719000000,44.9993088132,-80.9965325444,1
27740000000,44.9993108496,-80.9965297617,1
27762000000,44.999312987,-80.996526852,1
27779000000,44.9993147389,-80.9965244761,1
27801000000,44.999316786,-80.9965217088,1
27831000000,44.999318641,-80.9965192093,1
27849000000,44.9993214774,-80.9965154017,1
27859000000,44.9993225548,-80.9965139597,1
27899000000,44.9993264792,-80.9965087259,1
27899000000,44.9993264792,-80.9965087259,1
27921000000,44.9993284452,-80.9965061146,1
27940000000,44.9993304135,-80.9965035068,1
27963000000,44.999332384,-80.9965009023,1
27984000000,44.9993347515,-80.9964977813,1
28002000000,44.9993363314,-80.996495703,1
28019000000,44.9993382092,-80.9964932375,1
28039000000,44.9993401875,-80.9964906448,1
28059000000,44.9993422666,-80.9964879254,1
28083000000,44.999344645,-80.996484821,1
28100000000,44.9993462319,-80.9964827534,1
28120000000,44.9993483162,-80.9964800419,1
28134000000,44.9993502033,-80.9964775908,1
28160000000,44.9993521913,-80.996475013,1
28179000000,44.9993541806,-80.9964724372,1
28199000000,44.9993560717,-80.9964699922,1
28230000000,44.9993592594,-80.9964658785,1
28239000000,44.9993601565,-80.9964647224,1
28259000000,44.9993620513,-80.9964622832,1
28280000000,44.9993641469,-80.9964595892,1
28300000000,44.9993662437,-80.9964568974,1
28319000000,44.9993680422,-80.996454592,1
28340000000,44.9993701416,-80.996451904,1
28360000000,44.9993721422,-80.9964493459,1
28380000000,44.999374144,-80.9964467897,1
28405000000,44.9993763472,-80.9964439798,1
28423000000,44.9993785518,-80.9964411721,1
28440000000,44.9993802563,-80.9964390041,1
28465000000,44.9993826643,-80.9964359459,1
28491000000,44.9993841703,-80.9964340361,1
28505000000,44.9993862799,-80.9964313644,1
28523000000,44.9993884916,-80.9964285679,1
28539000000,44.9993901008,-80.9964265354,1
28560000000,44.999392114,-80.9964239974,1
28580000000,44.9993942294,-80.9964213349,1
28599000000,44.9993962457,-80.9964188017,1
28621000000,44.9993983646,-80.9964161448,1
28639000000,44.9994001824,-80.99641387,1
28659000000,44.9994022039,-80.9964113453,1
28679000000,44.9994042272,-80.9964088235,1
28699000000,44.9994063538,-80.996406179,1
28719000000,44.999408381,-80.9964036639,1
28740000000,44.9994104103,-80.9964011514,1
28759000000,44.9994124416,-80.9963986426,1
28780000000,44.9994144753,-80.9963961377,1
28803000000,44.9994166134,-80.9963935118,1
28819000000,44.99941855,-80.9963911396,1
28839000000,44.9994205911,-80.9963886468,1
28860000000,44.9994226349,-80.9963861582,1
28879000000,44.9994246813,-80.9963836742,1
28901000000,44.9994268332,-80.996381071,1
28919000000,44.9994286803,-80.9963788442,1
28939000000,44.9994308385,-80.9963762519,1
28959000000,44.9994327941,-80.9963739111,1
28988000000,44.999435682,-80.9963704715,1
29000000000,44.9994370251,-80.9963688785,1
29020000000,44.9994390944,-80.9963664326,1
29041000000,44.9994412711,-80.9963638712,1
29076000000,44.9994450123,-80.9963594968,1
29079000000,44.9994454288,-80.9963590121,1
29100000000,44.9994474093,-80.9963567138,1
29119000000,44.9994493937,-80.996354422,1
29139000000,44.9994515913,-80.9963518965,1
29160000000,44.9994536884,-80.9963494987,1
29180000000,44.9994557903,-80.9963471094,1
29200000000,44.9994578967,-80.9963447278,1
29218000000,44.9994599019,-80.9963424724,1
