rosbagTimestamp,latitude,longitude,label
1692000000,44.9990998072,-80.9994392039,1
1713000000,44.9990998013,-80.9994392113,1
1732000000,44.9990998069,-80.9994391769,1
1752000000,44.9990998048,-80.9994391593,1
1772000000,44.9990998053,-80.9994391561,1
1792000000,44.9990998052,-80.9994391651,1
1812000000,44.9990998052,-80.9994391859,1
1832000000,44.999099805,-80.9994392033,1
1851000000,44.9990998044,-80.99943919,1
1872000000,44.9990998047,-80.9994391869,1
1892000000,44.9990998041,-80.9994391825,1
1913000000,44.9990998041,-80.9994391771,1
1936000000,44.999099804,-80.9994391726,1
1952000000,44.9990998037,-80.9994391696,1
1972000000,44.9990998031,-80.999439165,1
1992000000,44.9990998025,-80.9994391609,1
2012000000,44.9990998027,-80.9994391566,1
2017000000,45.9262462953,-80.5179995784,-1
2032000000,44.9990998023,-80.9994391524,1
2052000000,44.9990998016,-80.9994391481,1
2072000000,44.9990998015,-80.9994391438,1
2092000000,44.9990998014,-80.9994391399,1
2112000000,44.9990998013,-80.9994391357,1
2134000000,44.9990998013,-80.9994391316,1
2152000000,44.9990998012,-80.999439128,1
2186000000,44.9990998012,-80.9994391242,1
2192000000,44.9990998012,-80.9994391206,1
2212000000,44.9990998011,-80.999439117,1
2232000000,44.9990998011,-80.9994391135,1
2252000000,44.999099801,-80.99943911,1
2274000000,44.999099801,-80.9994391064,1
2294000000,44.9990998009,-80.999439103,1
2312000000,44.9990998009,-80.9994391,1
2332000000,44.9990998009,-80.9994390967,1
2353000000,44.9990998008,-80.9994390931,1
2373000000,44.9990998008,-80.9994390899,1
2393000000,44.9990998007,-80.9994390867,1
2412000000,44.9990998007,-80.9994390836,1
2434000000,44.9990998007,-80.9994390803,1
2459000000,44.9990998007,-80.9994390764,1
2473000000,44.9990998006,-80.9994390742,1
2500000000,44.9990998005,-80.9994390699,1
2513000000,44.9990998005,-80.9994390679,1
2532000000,44.9990998005,-80.9994390649,1
2552000000,44.9990998005,-80.9994390617,1
2573000000,44.9990998004,-80.9994390586,1
2593000000,44.9990998004,-80.9994390555,1
2612000000,44.9990998004,-80.9994390525,1
2632000000,44.9990998003,-80.9994390495,1
2653000000,44.9990998003,-80.9994390463,1
2672000000,44.9990998002,-80.9994390434,1
2696000000,44.9990998002,-80.9994390402,1
2713000000,44.9990998001,-80.999439037,1
2733000000,44.9990998001,-80.999439034,1
2752000000,44.9990998001,-80.9994390311,1
2773000000,44.9990998,-80.9994390281,1
2793000000,44.9990998,-80.999439025,1
2816000000,44.9990997999,-80.9994390215,1
2832000000,44.9990997999,-80.999439019,1
2853000000,44.9990997999,-80.9994390159,1
2874000000,44.9990997998,-80.9994390126,1
2893000000,44.9990997998,-80.9994390099,1
2912000000,44.9990997998,-80.9994390068,1
2938000000,44.9990997997,-80.9994390031,1
2954000000,44.9990997997,-80.9994390008,1
2974000000,44.9990997996,-80.9994389976,1
2992000000,44.9990997996,-80.9994389948,1
3013000000,44.9990997996,-80.9994389917,1
3032000000,44.9990997995,-80.9994389889,1
3052000000,44.9990997995,-80.9994389857,1
3072000000,44.9990997994,-80.9994389827,1
3093000000,44.9990997994,-80.9994389797,1
3112000000,44.9990997993,-80.9994389768,1
3133000000,44.9990997993,-80.9994389735,1
3152000000,44.9990997992,-80.9994389707,1
3173000000,44.9990997992,-80.9994389674,1
3193000000,44.9990997992,-80.9994389646,1
3213000000,44.9990997992,-80.9994389616,1
3232000000,44.9990997991,-80.9994389585,1
3252000000,44.9990997991,-80.9994389555,1
3279000000,44.999099799,-80.9994389517,1
3292000000,44.999099799,-80.9994389496,1
3313000000,44.9990997989,-80.9994389465,1
3333000000,44.9990997989,-80.9994389435,1
3353000000,44.9990997988,-80.9994389403,1
3373000000,44.9990997988,-80.9994389373,1
3399000000,44.9990997987,-80.9994389333,1
3413000000,44.9990997987,-80.9994389314,1
3431000000,44.9990997987,-80.9994389282,1
3454000000,44.9990997986,-80.9994389252,1
3472000000,44.9990997986,-80.9994389223,1
3492000000,44.9990997986,-80.9994389193,1
3513000000,44.9990997985,-80.9994389163,1
3533000000,44.9990997985,-80.9994389133,1
3552000000,44.9990997984,-80.9994389103,1
3573000000,44.9990997984,-80.9994389073,1
3592000000,44.9990997983,-80.9994389044,1
3613000000,44.9990997983,-80.9994389011,1
3633000000,44.9990997983,-80.9994388982,1
3653000000,44.9990997982,-80.9994388952,1
3676000000,44.9990997982,-80.9994388919,1
3694000000,44.9990997981,-80.999438889,1
3713000000,44.9990997981,-80.9994388862,1
3732000000,44.9990997981,-80.9994388831,1
3753000000,44.999099798,-80.9994388801,1
3775000000,44.999099798,-80.9994388768,1
3792000000,44.9990997979,-80.9994388742,1
3812000000,44.9990997979,-80.9994388712,1
3833000000,44.9990997978,-80.9994388681,1
3853000000,44.9990997978,-80.9994388651,1
3873000000,44.9990997977,-80.9994388619,1
3892000000,44.9990997977,-80.9994388592,1
3913000000,44.9990997977,-80.999438856,1
3933000000,44.9990997976,-80.999438853,1
3952000000,44.9990997975,-80.9994388501,1
3972000000,44.9990997975,-80.9994388471,1
3992000000,44.9990997975,-80.9994388439,1
4001000000,45.1183709697,-81.8301822532,-1
4012000000,44.9990997974,-80.9994388409,1
4033000000,44.9990997974,-80.9994388379,1
4052000000,44.9990997974,-80.9994388349,1
4072000000,44.9990997973,-80.999438832,1
4093000000,44.9990997973,-80.9994388289,1
4112000000,44.9990997972,-80.999438826,1
4136000000,44.9990997971,-80.9994388224,1
4152000000,44.9990997971,-80.99943882,1
4173000000,44.9990997971,-80.9994388168,1
4193000000,44.999099797,-80.9994388138,1
4212000000,44.999099797,-80.9994388108,1
4232000000,44.999099797,-80.9994388078,1
4252000000,44.9990997969,-80.9994388047,1
4277000000,44.9990997969,-80.9994388017,1
4292000000,44.9990997968,-80.9994387987,1
4313000000,44.9990997968,-80.9994387957,1
4333000000,44.9990997967,-80.9994387927,1
4353000000,44.9990997967,-80.9994387897,1
4372000000,44.9990997966,-80.9994387866,1
4393000000,44.9990997966,-80.9994387836,1
4412000000,44.9990997965,-80.9994387806,1
4434000000,44.9990997965,-80.9994387774,1
4453000000,44.9990997964,-80.9994387744,1
4473000000,44.9990997964,-80.9994387714,1
4493000000,44.9990997964,-80.9994387685,1
4513000000,44.9990997963,-80.9994387655,1
4532000000,44.9990997963,-80.9994387625,1
4553000000,44.9990997962,-80.9994387593,1
4573000000,44.9990997962,-80.9994387565,1
4592000000,44.9990997961,-80.9994387535,1
4612000000,44.9990997961,-80.9994387505,1
4632000000,44.999099796,-80.9994387474,1
4652000000,44.999099796,-80.9994387446,1
4672000000,44.9990997959,-80.9994387414,1
4701000000,44.9990997958,-80.999438737,1
4712000000,44.9990997958,-80.9994387355,1
4733000000,44.9990997958,-80.9994387324,1
4751000000,44.9990997958,-80.9994387293,1
4772000000,44.9990997957,-80.9994387265,1
4795000000,44.9990997956,-80.9994387231,1
4813000000,44.9990997956,-80.9994387203,1
4833000000,44.9990997956,-80.9994387173,1
4853000000,44.9990997955,-80.9994387143,1
4876000000,44.9990997954,-80.9994387108,1
4893000000,44.9990997954,-80.9994387081,1
4913000000,44.9990997953,-80.999438705,1
4935000000,44.9990997953,-80.9994387019,1
4953000000,44.9990997952,-80.999438699,1
4973000000,44.9990997952,-80.9994386962,1
4994000000,44.9990997951,-80.999438693,1
5012000000,44.9990997951,-80.9994386903,1
5033000000,44.999099795,-80.999438687,1
5052000000,44.999099795,-80.9994386841,1
5073000000,44.999099795,-80.9994386811,1
5092000000,44.9990997949,-80.9994386781,1
5112000000,44.9990997949,-80.999438675,1
5132000000,44.9990997948,-80.999438672,1
5160000000,44.9990997947,-80.9994386679,1
5172000000,44.9990997947,-80.999438666,1
5193000000,44.9990997947,-80.999438663,1
5212000000,44.9990997946,-80.99943866,1
5233000000,44.9990997946,-80.9994386569,1
5253000000,44.9990997945,-80.9994386539,1
5273000000,44.9990997945,-80.9994386508,1
5293000000,44.9990997944,-80.9994386479,1
5314000000,44.9990997944,-80.9994386447,1
5335000000,44.9990997943,-80.9994386409,1
5354000000,44.9990997943,-80.9994386354,1
5373000000,44.9990997942,-80.9994386287,1
5392000000,44.9990997942,-80.9994386195,1
5412000000,44.999099794,-80.9994386089,1
5432000000,44.9990997939,-80.9994385952,1
5453000000,44.9990997938,-80.9994385806,1
5472000000,44.9990997937,-80.9994385667,1
5493000000,44.9990997936,-80.9994385513,1
5512000000,44.9990997934,-80.9994385361,1
5533000000,44.9990997932,-80.9994385185,1
5552000000,44.999099793,-80.999438501,1
5577000000,44.9990997928,-80.9994384799,1
5592000000,44.9990997926,-80.9994384646,1
5612000000,44.9990997924,-80.9994384448,1
5635000000,44.9990997922,-80.9994384221,1
5653000000,44.9990997921,-80.9994384017,1
5666000000,44.9990997919,-80.9994383794,1
5708000000,44.9990997915,-80.9994383456,1
5712000000,44.9990997914,-80.9994383335,1
5735000000,44.9990997912,-80.9994383049,1
5756000000,44.999099791,-80.9994382816,1
5772000000,44.9990997908,-80.999438255,1
5794000000,44.9990997905,-80.9994382274,1
5813000000,44.9990997903,-80.9994381974,1
5833000000,44.9990997901,-80.9994381694,1
5857000000,44.9990997897,-80.9994381327,1
5877000000,44.9990997894,-80.9994380994,1
5894000000,44.9990997892,-80.9994380734,1
5913000000,44.999099789,-80.9994380415,1
5932000000,44.9990997887,-80.999438007,1
5952000000,44.9990997884,-80.9994379714,1
5972000000,44.9990997881,-80.9994379347,1
5992000000,44.9990997878,-80.9994378988,1
6001000000,44.1551679829,-81.1768945053,-1
6019000000,44.9990997873,-80.9994378439,1
6034000000,44.9990997871,-80.9994378176,1
6053000000,44.9990997867,-80.9994377761,1
6097000000,44.9990997859,-80.9994376778,1
6098000000,44.9990997859,-80.9994376778,1
6113000000,44.9990997856,-80.9994376434,1
6132000000,44.9990997851,-80.9994375987,1
6153000000,44.9990997847,-80.9994375476,1
6173000000,44.9990997842,-80.9994374972,1
6193000000,44.9990997837,-80.9994374451,1
6217000000,44.999099783,-80.9994373803,1
6240000000,44.9990997823,-80.9994373157,1
6252000000,44.9990997819,-80.999437281,1
6274000000,44.9990997812,-80.9994372127,1
6293000000,44.9990997805,-80.9994371543,1
6313000000,44.9990997798,-80.9994370909,1
6332000000,44.9990997791,-80.9994370321,1
6354000000,44.9990997782,-80.9994369544,1
6373000000,44.9990997773,-80.9994368882,1
6394000000,44.9990997764,-80.9994368163,1
6413000000,44.9990997754,-80.9994367421,1
6432000000,44.9990997744,-80.9994366696,1
6454000000,44.9990997733,-80.9994365909,1
6471000000,44.9990997722,-80.9994365098,1
6493000000,44.999099771,-80.9994364304,1
6512000000,44.9990997697,-80.9994363444,1
6532000000,44.9990997683,-80.9994362514,1
6552000000,44.9990997668,-80.99943616,1
6573000000,44.9990997652,-80.9994360611,1
6592000000,44.9990997636,-80.999435969,1
6619000000,44.9990997619,-80.9994358692,1
6632000000,44.99909976,-80.9994357665,1
6652000000,44.9990997581,-80.9994356662,1
6672000000,44.999099756,-80.9994355521,1
6692000000,44.9990997538,-80.9994354402,1
6713000000,44.9990997514,-80.9994353251,1
6735000000,44.9990997487,-80.9994351948,1
6752000000,44.9990997464,-80.9994350851,1
6773000000,44.9990997436,-80.9994349601,1
6799000000,44.9990997398,-80.9994347924,1
6812000000,44.9990997376,-80.9994346996,1
6833000000,44.9990997344,-80.999434564,1
6854000000,44.9990997307,-80.9994344177,1
6874000000,44.9990997267,-80.9994342601,1
6890000000,44.9990997228,-80.9994341128,1
6912000000,44.9990997194,-80.9994339846,1
6932000000,44.9990997153,-80.9994338379,1
6956000000,44.9990997095,-80.9994336394,1
6973000000,44.9990997052,-80.9994335091,1
6994000000,44.9990996995,-80.999433334,1
7012000000,44.999099694,-80.9994331804,1
7033000000,44.9990996885,-80.9994330055,1
7067000000,44.9990996774,-80.9994326891,1
7072000000,44.9990996753,-80.9994326336,1
7092000000,44.9990996684,-80.9994324456,1
7112000000,44.999099661,-80.9994322531,1
7132000000,44.9990996538,-80.999432056,1
7153000000,44.9990996452,-80.9994318442,1
7172000000,44.9990996373,-80.9994316483,1
7193000000,44.9990996286,-80.9994314374,1
7212000000,44.9990996194,-80.9994312219,1
7233000000,44.9990996096,-80.9994310015,1
7247000000,44.9990995994,-80.9994307649,1
7273000000,44.9990995893,-80.9994305462,1
7295000000,44.9990995771,-80.9994302876,1
7313000000,44.9990995666,-80.9994300715,1
7336000000,44.9990995543,-80.9994298268,1
7359000000,44.9990995417,-80.999429577,1
7373000000,44.9990995287,-80.9994293221,1
7392000000,44.9990995148,-80.9994290623,1
7416000000,44.9990994972,-80.9994287437,1
7435000000,44.999099485,-80.9994285272,1
7453000000,44.9990994691,-80.999428252,1
7476000000,44.9990994492,-80.9994279148,1
7492000000,44.9990994362,-80.9994277002,1
7519000000,44.9990994118,-80.9994273065,1
7532000000,44.9990993985,-80.9994270986,1
7553000000,44.999099379,-80.9994267972,1
7574000000,44.9990993586,-80.9994264904,1
7608000000,44.9990993254,-80.9994260043,1
7612000000,44.9990993165,-80.9994258768,1
7632000000,44.9990992936,-80.9994255542,1
7656000000,44.9990992685,-80.9994252096,1
7672000000,44.9990992436,-80.9994248757,1
7692000000,44.9990992191,-80.9994245533,1
7713000000,44.9990991909,-80.9994241909,1
7733000000,44.9990991629,-80.99942384,1
7753000000,44.9990991338,-80.9994234832,1
7776000000,44.999099099,-80.9994230658,1
7793000000,44.9990990707,-80.9994227337,1
7816000000,44.9990990347,-80.9994223212,1
7835000000,44.9990990059,-80.9994219976,1
7857000000,44.9990989635,-80.9994215333,1
7874000000,44.9990989343,-80.9994212189,1
7896000000,44.9990988907,-80.9994207602,1
7912000000,44.9990988573,-80.999420416,1
7932000000,44.9990988187,-80.999420026,1
7952000000,44.9990987745,-80.9994195884,1
7972000000,44.9990987308,-80.9994191653,1
7995000000,44.9990986879,-80.9994187575,1
8005000000,45.952337594,-80.2071684738,-1
8014000000,44.9990986387,-80.9994183002,1
8035000000,44.9990985827,-80.9994177913,1
8053000000,44.9990985399,-80.9994174097,1
8072000000,44.9990984905,-80.9994169778,1
8093000000,44.999098434,-80.9994164936,1
8113000000,44.9990983782,-80.9994160259,1
8133000000,44.9990983206,-80.9994155517,1
8153000000,44.999098261,-80.999415071,1
8172000000,44.9990981994,-80.9994145838,1
8193000000,44.9990981358,-80.9994140901,1
8213000000,44.99909807,-80.9994135898,1
8232000000,44.9990980021,-80.9994130829,1
8247000000,44.999097932,-80.9994125694,1
8273000000,44.9990978559,-80.9994120231,1
8296000000,44.9990977697,-80.9994114163,1
8312000000,44.9990977078,-80.999410989,1
8347000000,44.9990975712,-80.9994100669,1
8352000000,44.9990975464,-80.9994099022,1
8372000000,44.9990974662,-80.9994093766,1
8392000000,44.9990973748,-80.9994087887,1
8412000000,44.9990972851,-80.9994082219,1
8432000000,44.9990971927,-80.9994076484,1
8452000000,44.9990971024,-80.9994070973,1
8473000000,44.9990969995,-80.9994064812,1
8492000000,44.9990968987,-80.9994058874,1
8513000000,44.9990967896,-80.9994052565,1
8535000000,44.9990966772,-80.9994046182,1
8552000000,44.9990965782,-80.999404065,1
8592000000,44.9990963667,-80.9994029107,1
8592000000,44.9990963491,-80.999402816,1
8612000000,44.9990962298,-80.9994021813,1
8633000000,44.9990961071,-80.9994015398,1
8652000000,44.9990959812,-80.9994008916,1
8672000000,44.9990958584,-80.9994002695,1
8700000000,44.9990956651,-80.9993993083,1
8712000000,44.9990955898,-80.99939894,1
8732000000,44.9990954431,-80.9993982313,1
8752000000,44.9990952996,-80.9993975495,1
8770000000,44.9990951525,-80.9993968609,1
8793000000,44.9990950016,-80.9993961657,1
8812000000,44.9990948468,-80.9993954638,1
8835000000,44.9990946882,-80.9993947552,1
8855000000,44.9990945173,-80.9993940038,1
8874000000,44.9990943504,-80.9993932813,1
8898000000,44.9990941447,-80.9993924052,1
8917000000,44.9990939776,-80.9993917047,1
8932000000,44.9990938339,-80.99939111,1
8953000000,44.9990936505,-80.9993903604,1
8972000000,44.9990934628,-80.999389604,1
8992000000,44.9990932805,-80.999388879,1
9022000000,44.9990930546,-80.9993879932,1
9033000000,44.9990928737,-80.9993872937,1
9053000000,44.9990926686,-80.9993865101,1
9073000000,44.9990924591,-80.9993857197,1
9097000000,44.9990921909,-80.9993847223,1
9113000000,44.9990920266,-80.9993841188,1
9133000000,44.9990917923,-80.9993832674,1
9153000000,44.9990915759,-80.9993824908,1
9172000000,44.9990913436,-80.9993816666,1
9193000000,44.9990911068,-80.9993808357,1
9213000000,44.999090853,-80.9993799559,1
9233000000,44.999090619,-80.9993791535,1
9252000000,44.9990903681,-80.9993783023,1
9278000000,44.9990900478,-80.9993772288,1
9293000000,44.9990898521,-80.9993765797,1
9312000000,44.9990895871,-80.9993757083,1
9333000000,44.9990893173,-80.9993748303,1
9353000000,44.9990890428,-80.9993739456,1
9373000000,44.9990887635,-80.9993730543,1
9392000000,44.9990884794,-80.9993721565,1
9412000000,44.9990882051,-80.9993712974,1
9433000000,44.999087897,-80.999370341,1
9456000000,44.9990875534,-80.9993692852,1
9474000000,44.9990872799,-80.9993684529,1
9493000000,44.9990869715,-80.9993675218,1
9512000000,44.9990866898,-80.9993666781,1
9533000000,44.9990863562,-80.999365687,1
9552000000,44.9990860336,-80.9993647361,1
9582000000,44.9990855575,-80.9993633454,1
9594000000,44.9990853743,-80.9993628141,1
9613000000,44.9990850378,-80.9993618428,1
9636000000,44.9990846454,-80.9993607173,1
9657000000,44.9990843516,-80.9993598796,1
9672000000,44.999084002,-80.9993588875,1
9693000000,44.9990836661,-80.9993579386,1
9712000000,44.9990832906,-80.9993568824,1
9732000000,44.9990829289,-80.9993558691,1
9753000000,44.9990825635,-80.9993548486,1
9780000000,44.9990821016,-80.9993535627,1
9792000000,44.9990818219,-80.9993527857,1
9813000000,44.9990814459,-80.999351743,1
9832000000,44.9990810668,-80.9993506929,1
9856000000,44.9990806845,-80.9993496351,1
9873000000,44.99908028,-80.9993485162,1
9892000000,44.9990799305,-80.9993475495,1
9914000000,44.9990795214,-80.9993464138,1
9935000000,44.99907909,-80.9993452145,1
9955000000,44.9990787152,-80.9993441706,1
9973000000,44.9990783187,-80.9993430637,1
9992000000,44.9990779403,-80.9993420043,1
10002000000,44.8916615283,-81.9754161338,-1
10013000000,44.9990775404,-80.9993408808,1
10033000000,44.999077139,-80.9993397486,1
10052000000,44.9990767564,-80.9993386649,1
10072000000,44.9990763524,-80.9993375155,1
10092000000,44.9990759474,-80.9993363571,1
10117000000,44.9990754803,-80.9993350137,1
10132000000,44.9990751141,-80.9993339538,1
10152000000,44.9990747065,-80.9993327673,1
10173000000,44.9990742984,-80.9993315714,1
10192000000,44.9990738899,-80.999330366,1
10212000000,44.9990734812,-80.9993291509,1
10234000000,44.9990730724,-80.9993279262,1
10252000000,44.9990726839,-80.9993267536,1
10275000000,44.9990722139,-80.9993253223,1
10295000000,44.9990718462,-80.9993241929,1
10312000000,44.9990714381,-80.9993229285,1
10336000000,44.999070949,-80.9993213978,1
10353000000,44.9990706234,-80.9993203691,1
10372000000,44.9990702171,-80.9993190743,1
10393000000,44.9990698118,-80.9993177694,1
10413000000,44.999069408,-80.999316454,1
10433000000,44.9990690058,-80.9993151282,1
10455000000,44.9990685457,-80.9993135905,1
10475000000,44.999068148,-80.9993122419,1
10495000000,44.9990677725,-80.9993109509,1
10519000000,44.9990673021,-80.9993093061,1
10533000000,44.9990670301,-80.9993083391,1
10552000000,44.9990666448,-80.9993069481,1
10572000000,44.9990662823,-80.9993056163,1
10593000000,44.9990658863,-80.999304132,1
10613000000,44.9990655139,-80.9993027063,1
10633000000,44.9990651465,-80.9993012688,1
10653000000,44.9990647846,-80.9992998192,1
10673000000,44.9990644277,-80.9992983579,1
10695000000,44.999064042,-80.9992967363,1
10713000000,44.9990637321,-80.9992953987,1
10736000000,44.9990633938,-80.9992939009,1
10756000000,44.9990630298,-80.999292239,1
10773000000,44.9990627218,-80.9992907921,1
10798000000,44.9990623581,-80.9992890255,1
10818000000,44.9990620345,-80.9992873985,1
10832000000,44.9990618236,-80.9992863064,1
10852000000,44.9990615148,-80.9992846569,1
10872000000,44.9990612292,-80.9992830733,1
10892000000,44.9990609523,-80.9992814781,1
10914000000,44.999060658,-80.9992797089,1
10933000000,44.9990604249,-80.9992782512,1
10953000000,44.9990601749,-80.9992766201,1
10973000000,44.9990599236,-80.9992748942,1
10993000000,44.9990597053,-80.9992733217,1
11012000000,44.9990594962,-80.9992717385,1
11036000000,44.9990592762,-80.9992699765,1
11052000000,44.9990590776,-80.9992682866,1
11077000000,44.9990588538,-80.9992662436,1
11092000000,44.9990586711,-80.9992644428,1
11110000000,44.9990585565,-80.9992632354,1
11133000000,44.999058395,-80.9992614144,1
11153000000,44.9990582534,-80.9992596691,1
11186000000,44.9990580465,-80.9992567662,1
11192000000,44.9990580124,-80.9992562354,1
11213000000,44.9990579024,-80.9992543702,1
11229000000,44.999057802,-80.9992524044,1
11253000000,44.9990577316,-80.9992507869,1
11273000000,44.9990576627,-80.9992488899,1
11293000000,44.999057613,-80.9992471645,1
11313000000,44.9990575737,-80.9992453393,1
11323000000,44.9990575489,-80.9992435971,1
11353000000,44.9990575361,-80.9992416621,1
11373000000,44.9990575386,-80.9992397177,1
11393000000,44.9990575543,-80.9992379503,1
11417000000,44.9990575924,-80.9992357071,1
11432000000,44.9990576292,-80.9992342052,1
11453000000,44.9990576882,-80.9992323207,1
11472000000,44.9990577575,-80.9992305235,1
11493000000,44.9990578495,-80.9992285296,1
11519000000,44.9990579801,-80.9992261458,1
11534000000,44.9990580821,-80.9992245189,1
11558000000,44.9990582372,-80.9992223105,1
11573000000,44.9990583568,-80.9992207695,1
11592000000,44.9990585114,-80.9992189345,1
11613000000,44.9990586982,-80.9992169003,1
11634000000,44.9990588915,-80.9992149572,1
11656000000,44.9990591327,-80.9992127159,1
11672000000,44.9990593007,-80.9992112507,1
11690000000,44.9990595502,-80.9992091946,1
11713000000,44.9990598034,-80.9992072318,1
11745000000,44.9990602543,-80.9992039837,1
11766000000,44.9990605325,-80.9992021085,1
11778000000,44.9990606691,-80.999201219,1
11795000000,44.9990609994,-80.9991991405,1
11812000000,44.9990612957,-80.9991973557,1
11832000000,44.9990616213,-80.9991954687,1
11852000000,44.9990619965,-80.9991933797,1
11872000000,44.9990623688,-80.999191387,1
11893000000,44.9990627556,-80.9991893909,1
11912000000,44.999063136,-80.9991874923,1
11932000000,44.9990635714,-80.9991853909,1
11949000000,44.9990640004,-80.9991833868,1
11973000000,44.9990644427,-80.99918138,1
11992000000,44.9990648985,-80.9991793707,1
12000000000,44.5543579501,-80.8163441323,-1
12013000000,44.9990653676,-80.999177359,1
12035000000,44.9990658497,-80.999175345,1
12053000000,44.9990663695,-80.9991732277,1
12071000000,44.9990668518,-80.99917131,1
12092000000,44.9990673451,-80.9991693903,1
12112000000,44.999067903,-80.9991672662,1
12132000000,44.9990684465,-80.9991652409,1
12152000000,44.9990690013,-80.9991632134,1
12172000000,44.9990695679,-80.9991611839,1
12195000000,44.9990701457,-80.9991591523,1
12212000000,44.9990707043,-80.99915722,1
12232000000,44.9990713331,-80.9991550821,1
12253000000,44.9990719426,-80.9991530437,1
12268000000,44.999072531,-80.9991511049,1
12303000000,44.999073542,-80.9991478349,1
12313000000,44.9990738307,-80.999146914,1
12332000000,44.9990744792,-80.9991448659,1
12358000000,44.9990753357,-80.9991421995,1
12372000000,44.9990758031,-80.9991407618,1
12392000000,44.9990764442,-80.9991388086,1
12406000000,44.9990771273,-80.9991367498,1
12432000000,44.9990778533,-80.999134585,1
12452000000,44.9990785178,-80.9991326234,1
12482000000,44.999079581,-80.9991295203,1
12492000000,44.999079975,-80.9991283808,1
12512000000,44.9990806971,-80.9991263068,1
12534000000,44.9990814993,-80.9991240202,1
12553000000,44.9990821617,-80.9991221462,1
12572000000,44.9990828666,-80.9991201647,1
12593000000,44.9990836525,-80.9991179705,1
12612000000,44.9990844071,-80.9991158766,1
12633000000,44.9990851677,-80.9991137785,1
12652000000,44.999085934,-80.999111676,1
12672000000,44.9990867058,-80.9991095691,1
12693000000,44.999087522,-80.9991073518,1
12713000000,44.9990882653,-80.9991053413,1
12747000000,44.9990896067,-80.9991017324,1
12752000000,44.9990898448,-80.999101094,1
12773000000,44.9990906415,-80.9990989628,1
12792000000,44.9990914427,-80.9990968264,1
12813000000,44.9990922481,-80.9990946846,1
12826000000,44.9990930576,-80.9990925374,1
12852000000,44.999093871,-80.9990903845,1
12874000000,44.9990947701,-80.9990880097,1
12892000000,44.999095509,-80.9990860615,1
12914000000,44.9990964159,-80.9990836737,1
12936000000,44.9990973267,-80.9990812786,1
12952000000,44.9990979916,-80.9990795319,1
12972000000,44.9990988253,-80.999077343,1
13013000000,44.9991001232,-80.9990739373,1
13017000000,44.9991005854,-80.9990727251,1
13039000000,44.9991015963,-80.9990700733,1
13052000000,44.9991021876,-80.999068522,1
13072000000,44.9991030343,-80.9990662999,1
13092000000,44.9991038831,-80.999064071,1
13113000000,44.999104734,-80.999061835,1
13132000000,44.999105544,-80.9990597042,1
13153000000,44.9991064412,-80.9990573415,1
13173000000,44.9991073398,-80.9990549705,1
13205000000,44.9991085408,-80.9990517967,1
13215000000,44.9991090133,-80.9990505457,1
13235000000,44.9991099593,-80.999048037,1
13259000000,44.9991107344,-80.9990459774,1
13272000000,44.9991115533,-80.9990437966,1
13293000000,44.9991125024,-80.9990412624,1
13320000000,44.9991133659,-80.9990389503,1
13333000000,44.99911423,-80.9990366301,1
13353000000,44.9991150512,-80.9990344182,1
13372000000,44.9991159159,-80.9990320819,1
13411000000,44.9991176024,-80.999027502,1
13412000000,44.9991176024,-80.999027502,1
13432000000,44.9991184672,-80.9990251407,1
13468000000,44.9991200662,-80.9990207498,1
13473000000,44.999120239,-80.9990202733,1
13492000000,44.9991211026,-80.9990178857,1
13513000000,44.9991220085,-80.9990153692,1
13533000000,44.9991228706,-80.9990129634,1
13552000000,44.9991236887,-80.9990106696,1
13574000000,44.9991246347,-80.9990080035,1
13593000000,44.9991254079,-80.9990058144,1
13613000000,44.9991262637,-80.9990033747,1
13632000000,44.9991271161,-80.9990009281,1
13652000000,44.9991279687,-80.9989984728,1
13672000000,44.9991287769,-80.9989961331,1
13693000000,44.9991296679,-80.9989935397,1
13712000000,44.9991305147,-80.9989910618,1
13731000000,44.999131317,-80.9989887003,1
13759000000,44.9991324124,-80.9989854565,1
13774000000,44.9991330828,-80.9989834539,1
13793000000,44.9991338739,-80.9989810672,1
13812000000,44.9991346615,-80.9989786716,1
13833000000,44.9991355277,-80.9989760144,1
13852000000,44.9991363492,-80.998973476,1
13873000000,44.9991371687,-80.9989709324,1
13899000000,44.9991380146,-80.9989682459,1
13917000000,44.9991389551,-80.9989651596,1
13934000000,44.9991395314,-80.9989632257,1
13953000000,44.9991402876,-80.9989606439,1
13974000000,44.9991411042,-80.9989578001,1
13992000000,44.9991418235,-80.9989554385,1
14001000000,45.8837384748,-80.9008911183,-1
14013000000,44.9991426361,-80.9989527713,1
14033000000,44.999143428,-80.9989500941,1
14057000000,44.9991444201,-80.9989467571,1
14072000000,44.999144978,-80.9989447419,1
14098000000,44.999145853,-80.9989412167,1
14113000000,44.9991463057,-80.9989393147,1
14135000000,44.9991470601,-80.9989363359,1
14153000000,44.999147865,-80.9989331887,1
14172000000,44.9991483996,-80.998931141,1
14193000000,44.999149146,-80.9989282742,1
14212000000,44.9991498003,-80.9989256622,1
14233000000,44.9991505021,-80.9989227559,1
14253000000,44.999151133,-80.9989201206,1
14273000000,44.9991517778,-80.9989173338,1
14290000000,44.9991524024,-80.9989145336,1
14316000000,44.9991531324,-80.9989111587,1
14336000000,44.999153693,-80.9989084742,1
14352000000,44.9991541805,-80.9989060624,1
14373000000,44.9991547284,-80.9989029957,1
14399000000,44.9991554388,-80.9988991771,1
14414000000,44.999155887,-80.9988969797,1
14440000000,44.9991565822,-80.9988934539,1
14453000000,44.9991569693,-80.9988913865,1
14474000000,44.9991575292,-80.99888827,1
14502000000,44.9991581582,-80.9988845369,1
14514000000,44.9991584813,-80.9988824413,1
14533000000,44.9991589366,-80.9988794268,1
14553000000,44.9991593275,-80.9988765592,1
14573000000,44.9991597347,-80.9988733665,1
14594000000,44.9991601226,-80.9988700169,1
14613000000,44.9991603858,-80.9988672599,1
14632000000,44.9991606938,-80.9988641868,1
14655000000,44.9991609276,-80.9988608064,1
14673000000,44.9991611431,-80.9988578646,1
14696000000,44.9991613448,-80.9988544649,1
14712000000,44.9991614669,-80.9988518237,1
14732000000,44.99916161,-80.9988488666,1
14753000000,44.9991616956,-80.9988456,1
14780000000,44.9991617838,-80.998842474,1
14792000000,44.9991618176,-80.9988393454,1
14813000000,44.9991618357,-80.9988362115,1
14832000000,44.9991618276,-80.9988330673,1
14855000000,44.9991617711,-80.9988299194,1
14890000000,44.9991616227,-80.9988239288,1
14892000000,44.9991616171,-80.9988236132,1
14924000000,44.9991615826,-80.9988198197,1
14932000000,44.9991615881,-80.998817442,1
14952000000,44.9991616262,-80.9988141032,1
14972000000,44.9991616633,-80.9988109173,1
14995000000,44.9991616644,-80.9988072479,1
15012000000,44.9991616407,-80.9988046919,1
15032000000,44.9991615696,-80.9988013359,1
15053000000,44.9991614765,-80.9987981328,1
15075000000,44.9991612896,-80.9987947885,1
15093000000,44.9991611161,-80.9987917449,1
15114000000,44.9991608613,-80.9987885639,1
15133000000,44.9991605606,-80.9987853791,1
15153000000,44.9991602469,-80.9987820254,1
15174000000,44.9991598157,-80.9987787127,1
15192000000,44.9991594597,-80.9987758455,1
15213000000,44.9991590149,-80.9987726702,1
15232000000,44.9991585399,-80.9987694796,1
15255000000,44.9991579581,-80.998765821,1
15273000000,44.9991574925,-80.9987629489,1
15293000000,44.9991569478,-80.9987599287,1
15312000000,44.9991563496,-80.9987567538,1
15334000000,44.99915576,-80.998753339,1
15352000000,44.9991553444,-80.9987505379,1
15373000000,44.9991548773,-80.9987474171,1
15393000000,44.9991544043,-80.9987442877,1
15412000000,44.9991539494,-80.998741307,1
15435000000,44.9991533913,-80.9987376895,1
15453000000,44.9991529487,-80.9987348515,1
15473000000,44.9991524257,-80.9987315336,1
15494000000,44.9991519209,-80.9987283672,1
15512000000,44.9991514708,-80.9987255098,1
15536000000,44.9991507896,-80.9987219341,1
15552000000,44.9991501383,-80.9987192096,1
15572000000,44.9991494185,-80.9987161793,1
15595000000,44.9991486225,-80.9987127095,1
15613000000,44.9991480414,-80.9987101515,1
15632000000,44.9991473591,-80.9987071426,1
15657000000,44.9991466043,-80.9987037034,1
15677000000,44.9991459467,-80.9987004421,1
15694000000,44.9991455132,-80.9986980915,1
15712000000,44.9991450161,-80.998695309,1
15733000000,44.9991445141,-80.9986923907,1
15755000000,44.9991439876,-80.9986891934,1
15772000000,44.9991435995,-80.9986867323,1
15792000000,44.999143143,-80.9986837037,1
15812000000,44.9991427321,-80.9986808315,1
15833000000,44.9991423445,-80.9986779711,1
15852000000,44.999141998,-80.9986752648,1
15872000000,44.9991416394,-80.998672286,1
15892000000,44.9991413371,-80.9986696021,1
15909000000,44.9991410269,-80.9986666477,1
15932000000,44.9991407546,-80.9986638456,1
15953000000,44.9991405044,-80.9986610546,1
15981000000,44.9991402114,-80.9986574423,1
15995000000,44.9991400487,-80.9986552281,1
16008000000,44.9013080492,-81.8727023058,-1
16012000000,44.9991398811,-80.9986527447,1
16036000000,44.999139686,-80.9986495909,1
16053000000,44.9991393959,-80.9986473957,1
16072000000,44.9991389011,-80.9986450611,1
16092000000,44.9991382997,-80.9986425141,1
16114000000,44.9991377637,-80.9986402017,1
16136000000,44.9991371162,-80.9986372601,1
16152000000,44.999136812,-80.9986351761,1
16172000000,44.9991365863,-80.9986327275,1
16193000000,44.9991363581,-80.9986302779,1
16218000000,44.9991360686,-80.9986272127,1
16236000000,44.9991358567,-80.9986250023,1
16257000000,44.9991356056,-80.9986224184,1
16275000000,44.9991353866,-80.9986201983,1
16292000000,44.9991351639,-80.9986179726,1
16312000000,44.9991348085,-80.9986155353,1
16333000000,44.9991343274,-80.9986131285,1
16352000000,44.9991337052,-80.9986107558,1
16374000000,44.9991326199,-80.9986074887,1
16393000000,44.9991322699,-80.9986047119,1
16414000000,44.999131818,-80.9986013405,1
16432000000,44.9991314258,-80.998598784,1
16455000000,44.9991309062,-80.9985951879,1
16472000000,44.9991305634,-80.9985926512,1
16492000000,44.9991301768,-80.998589675,1
16513000000,44.99912981,-80.9985867111,1
16536000000,44.9991294475,-80.998583611,1
16553000000,44.9991291455,-80.9985808135,1
16595000000,44.9991285372,-80.9985745072,1
16595000000,44.9991285372,-80.9985745072,1
16619000000,44.999128334,-80.9985720229,1
16636000000,44.9991281319,-80.9985691007,1
16653000000,44.9991279369,-80.9985661945,1
16674000000,44.9991276943,-80.9985631726,1
16698000000,44.9991274517,-80.9985604557,1
16712000000,44.9991271798,-80.9985576098,1
16749000000,44.9991264821,-80.9985524062,1
16753000000,44.9991263975,-80.9985518152,1
16774000000,44.9991259934,-80.9985490153,1
16792000000,44.9991254862,-80.9985459691,1
16813000000,44.9991249663,-80.9985429386,1
16833000000,44.9991244794,-80.9985402131,1
16857000000,44.9991238729,-80.9985369319,1
16872000000,44.9991234026,-80.9985345273,1
16892000000,44.9991228188,-80.9985318315,1
16913000000,44.9991221713,-80.9985288345,1
16933000000,44.9991214884,-80.9985258696,1
16960000000,44.9991207782,-80.9985226339,1
16975000000,44.9991202445,-80.9985200839,1
16994000000,44.9991197091,-80.9985173834,1
17014000000,44.999119187,-80.9985145255,1
17047000000,44.9991187237,-80.9985117963,1
17051000000,44.9991182956,-80.9985090515,1
17081000000,44.9991177407,-80.9985052829,1
17095000000,44.9991174077,-80.9985031165,1
17112000000,44.9991169517,-80.9985003847,1
17132000000,44.9991164077,-80.9984973805,1
17154000000,44.9991158285,-80.9984943908,1
17189000000,44.9991150813,-80.9984908543,1
17192000000,44.9991146445,-80.9984888842,1
17212000000,44.99911403,-80.9984862156,1
17233000000,44.9991132957,-80.9984832973,1
17252000000,44.9991126108,-80.9984806609,1
17272000000,44.9991118366,-80.9984779157,1
17292000000,44.999111065,-80.9984750234,1
17312000000,44.999110391,-80.9984723941,1
17333000000,44.9991096848,-80.9984694677,1
17360000000,44.9991088357,-80.9984656718,1
17388000000,44.999108204,-80.998462702,1
17393000000,44.999107818,-80.9984608599,1
17413000000,44.999107224,-80.9984581848,1
17432000000,44.9991065978,-80.998455524,1
17453000000,44.9991058649,-80.9984526009,1
17474000000,44.9991050536,-80.9984495582,1
17493000000,44.9991043636,-80.9984470809,1
17512000000,44.9991036101,-80.9984444768,1
17532000000,44.9991027681,-80.9984417659,1
17552000000,44.9991018516,-80.9984389365,1
17573000000,44.9991009328,-80.9984362686,1
17593000000,44.9991000456,-80.9984335897,1
17616000000,44.9990991874,-80.9984308926,1
17632000000,44.9990983601,-80.9984281749,1
17661000000,44.9990972646,-80.9984243303,1
17680000000,44.9990966788,-80.998422107,1
17693000000,44.9990961355,-80.9984200214,1
17714000000,44.9990952577,-80.9984168572,1
17732000000,44.9990945431,-80.998414398,1
17753000000,44.999093717,-80.9984116858,1
17773000000,44.999092856,-80.9984089951,1
17795000000,44.9990918194,-80.9984059301,1
17812000000,44.9990910256,-80.9984036808,1
17832000000,44.9990901082,-80.9984011871,1
17853000000,44.9990890799,-80.9983984421,1
17875000000,44.9990879941,-80.9983954145,1
17892000000,44.9990872173,-80.9983931605,1
17912000000,44.9990863433,-80.9983904817,1
17932000000,44.9990854898,-80.998387787,1
17959000000,44.9990844134,-80.9983840999,1
17972000000,44.9990838896,-80.9983823319,1
17993000000,44.9990830081,-80.9983795027,1
18012000000,44.9990821856,-80.9983769571,1
18012000000,45.4469368397,-81.3727039102,-1
18032000000,44.9990812873,-80.9983742971,1
18053000000,44.9990803558,-80.9983716566,1
18084000000,44.9990789504,-80.9983675483,1
18092000000,44.9990785573,-80.998366345,1
18126000000,44.9990777077,-80.9983636582,1
18133000000,44.9990768938,-80.9983609473,1
18154000000,44.9990761115,-80.9983582163,1
18173000000,44.9990753138,-80.9983554996,1
18198000000,44.9990742795,-80.9983521268,1
18222000000,44.9990736738,-80.998350093,1
18232000000,44.9990728891,-80.9983473667,1
18261000000,44.9990718473,-80.9983436774,1
18273000000,44.9990713082,-80.9983417646,1
18309000000,44.9990699982,-80.9983369624,1
18312000000,44.9990698526,-80.9983364112,1
18332000000,44.9990691654,-80.9983337907,1
18353000000,44.9990684152,-80.9983308898,1
18372000000,44.9990677196,-80.9983281173,1
18392000000,44.9990670421,-80.998325336,1
18412000000,44.9990664113,-80.998322688,1
18432000000,44.9990657641,-80.9983198929,1
18454000000,44.9990651055,-80.9983169486,1
18472000000,44.9990644974,-80.9983141362,1
18493000000,44.9990639072,-80.9983113163,1
18513000000,44.9990633082,-80.9983083469,1
18531000000,44.9990628128,-80.9983057946,1
18552000000,44.9990622566,-80.9983028087,1
18572000000,44.9990617734,-80.9983000998,1
18593000000,44.9990612612,-80.998297098,1
18612000000,44.9990607951,-80.9982942318,1
18633000000,44.9990603511,-80.9982913585,1
18652000000,44.9990599296,-80.9982884782,1
18672000000,44.9990595306,-80.9982855915,1
18692000000,44.999059154,-80.9982826986,1
18717000000,44.9990587497,-80.9982793644,1
18729000000,44.9990584709,-80.9982768951,1
18754000000,44.9990581501,-80.9982738396,1
18772000000,44.9990578959,-80.9982712162,1
18798000000,44.9990575511,-80.998267274,1
18819000000,44.9990573245,-80.9982643487,1
18833000000,44.9990571706,-80.998262152,1
18853000000,44.9990569945,-80.9982593665,1
18876000000,44.9990568101,-80.9982559907,1
18892000000,44.9990567007,-80.99825364,1
18913000000,44.9990565804,-80.9982505524,1
18940000000,44.9990564607,-80.998246432,1
18953000000,44.9990564211,-80.9982445179,1
18973000000,44.9990563813,-80.9982417194,1
18993000000,44.9990563625,-80.9982387727,1
19012000000,44.9990563668,-80.9982359729,1
19032000000,44.9990563964,-80.9982328779,1
19052000000,44.9990564453,-80.9982300777,1
19076000000,44.9990565365,-80.9982265409,1
19094000000,44.9990566208,-80.9982240363,1
19112000000,44.9990567407,-80.9982210907,1
19132000000,44.9990568751,-80.9982182938,1
19153000000,44.9990570468,-80.9982152043,1
19174000000,44.9990572425,-80.998212117,1
19193000000,44.9990574509,-80.9982091788,1
19213000000,44.9990576681,-80.9982063897,1
19235000000,44.9990579426,-80.9982031632,1
19252000000,44.9990581852,-80.9982005259,1
19274000000,44.9990584883,-80.9981974522,1
19292000000,44.9990587808,-80.9981946744,1
19313000000,44.999059124,-80.9981916079,1
19336000000,44.9990594698,-80.998188691,1
19352000000,44.9990598149,-80.9981859232,1
19372000000,44.9990601755,-80.9981831586,1
19393000000,44.9990605912,-80.9981801066,1
19412000000,44.9990610034,-80.9981772037,1
19432000000,44.9990614307,-80.9981743043,1
19456000000,44.9990618498,-80.998171553,1
19473000000,44.9990623268,-80.9981685155,1
19492000000,44.9990627938,-80.9981656257,1
19512000000,44.999063272,-80.998162739,1
19533000000,44.9990637599,-80.9981598548,1
19552000000,44.9990642583,-80.9981569737,1
19573000000,44.9990647668,-80.9981540956,1
19602000000,44.9990653884,-80.9981506451,1
19612000000,44.9990657824,-80.99814849,1
19633000000,44.999066367,-80.9981453313,1
19656000000,44.9990668778,-80.9981426049,1
19673000000,44.9990674205,-80.9981397365,1
19701000000,44.9990680228,-80.9981365828,1
19712000000,44.9990684917,-80.9981341468,1
19732000000,44.9990690742,-80.9981311384,1
19752000000,44.9990696038,-80.998128417,1
19774000000,44.999070219,-80.9981252662,1
19792000000,44.9990707511,-80.998122545,1
19812000000,44.9990713115,-80.9981196802,1
19840000000,44.9990718714,-80.9981168148,1
19856000000,44.9990725141,-80.9981135186,1
19872000000,44.99907296,-80.9981112247,1
19894000000,44.9990735985,-80.998107926,1
19944000000,44.9990749442,-80.9981008908,1
19944000000,44.9990749442,-80.9981008908,1
19953000000,44.9990751885,-80.9980995973,1
19976000000,44.9990758349,-80.9980961456,1
19992000000,44.9990762612,-80.9980938425,1
20001000000,45.4389931169,-80.3702162466,-1
20013000000,44.9990768146,-80.9980908169,1
20032000000,44.9990772828,-80.998088221,1
20053000000,44.9990778212,-80.9980851894,1
20073000000,44.9990783501,-80.9980821539,1
20103000000,44.9990790876,-80.9980778107,1
20113000000,44.9990793045,-80.998076506,1
20135000000,44.9990798491,-80.9980731684,1
20153000000,44.9990802423,-80.998070698,1
20173000000,44.9990806945,-80.998067788,1
20193000000,44.9990811564,-80.9980647284,1
20212000000,44.9990815619,-80.9980619557,1
20216000000,44.9990820371,-80.9980585947,1
20263000000,44.9990824938,-80.9980552275,1
20273000000,44.9990827625,-80.9980531752,1
20292000000,44.999083116,-80.9980503868,1
20313000000,44.9990834906,-80.9980473003,1
20333000000,44.9990838313,-80.9980443562,1
20353000000,44.9990841562,-80.9980414079,1
20381000000,44.9990845839,-80.9980372734,1
20392000000,44.9990847431,-80.998035647,1
20413000000,44.9990850485,-80.998032391,1
20434000000,44.9990852957,-80.9980295755,1
20453000000,44.9990855341,-80.9980266073,1
20475000000,44.9990857793,-80.9980233386,1
20493000000,44.9990859642,-80.9980206615,1
20512000000,44.9990861519,-80.9980176835,1
20533000000,44.9990863222,-80.9980147029,1
20556000000,44.9990864955,-80.9980112715,1
20572000000,44.999086608,-80.9980087331,1
20600000000,44.9990867441,-80.9980051467,1
20613000000,44.9990868199,-80.9980027538,1
20633000000,44.9990869014,-80.9979996112,1
20652000000,44.9990869576,-80.9979967661,1
20674000000,44.9990869973,-80.9979939195,1
20693000000,44.9990870226,-80.9979906218,1
20712000000,44.9990870267,-80.9979877726,1
20732000000,44.9990870133,-80.9979847725,1
20752000000,44.9990869839,-80.9979819217,1
20773000000,44.9990869324,-80.9979787702,1
20793000000,44.999086865,-80.9979757684,1
20812000000,44.9990867802,-80.9979727662,1
20833000000,44.999086678,-80.997969764,1
20853000000,44.9990865588,-80.997966762,1
20873000000,44.9990864226,-80.9979637603,1
20892000000,44.9990862697,-80.9979607592,1
20912000000,44.9990861002,-80.9979577588,1
20933000000,44.9990859045,-80.9979546094,1
20953000000,44.9990857224,-80.9979519109,1
20973000000,44.999085482,-80.997948614,1
20993000000,44.9990852587,-80.9979457678,1
21013000000,44.9990850086,-80.9979427732,1
21033000000,44.9990847434,-80.9979397799,1
21052000000,44.9990844631,-80.9979367883,1
21075000000,44.999084138,-80.9979334994,1
21093000000,44.9990838592,-80.9979308099,1
21106000000,44.9990835035,-80.9979275245,1
21132000000,44.9990832179,-80.9979249869,1
21159000000,44.9990827284,-80.99792081,1
21173000000,44.9990824933,-80.9979188717,1
21193000000,44.9990821224,-80.9979158911,1
21215000000,44.9990817019,-80.9979126143,1
21234000000,44.9990813286,-80.9979097858,1
21252000000,44.9990809666,-80.9979071076,1
21272000000,44.9990805343,-80.9979039846,1
21292000000,44.9990801129,-80.9979010117,1
21312000000,44.9990797046,-80.9978981888,1
21333000000,44.9990792228,-80.9978949214,1
21354000000,44.999078777,-80.9978919521,1
21372000000,44.999078347,-80.9978891322,1
21397000000,44.9990777958,-80.9978855712,1
21422000000,44.9990771899,-80.9978817143,1
21433000000,44.9990769549,-80.997880231,1
21452000000,44.9990764821,-80.9978772644,1
21478000000,44.9990759105,-80.9978737045,1
21493000000,44.9990755272,-80.9978713311,1
21517000000,44.9990749255,-80.9978676223,1
21536000000,44.9990744912,-80.9978649513,1
21553000000,44.9990740568,-80.9978622795,1
21573000000,44.9990735744,-80.9978593098,1
21593000000,44.9990731168,-80.9978564874,1
21612000000,44.9990726367,-80.9978535151,1
21633000000,44.9990721587,-80.997850541,1
21653000000,44.9990716831,-80.9978475652,1
21672000000,44.9990712108,-80.9978445873,1
21692000000,44.9990707418,-80.9978416074,1
21712000000,44.9990702997,-80.9978387743,1
21732000000,44.9990698384,-80.99783579,1
21751000000,44.9990693821,-80.9978328031,1
21773000000,44.9990689088,-80.9978296641,1
21793000000,44.9990684642,-80.9978266716,1
21812000000,44.999068026,-80.9978236762,1
21838000000,44.999067488,-80.9978199276,1
21852000000,44.9990671917,-80.9978178263,1
21873000000,44.9990667543,-80.9978146714,1
21892000000,44.9990663458,-80.9978116634,1
21913000000,44.9990659461,-80.9978086522,1
21933000000,44.999065556,-80.9978056374,1
21965000000,44.9990649895,-80.9978011084,1
21973000000,44.9990648058,-80.997799597,1
21995000000,44.9990643934,-80.9977961174,1
22001000000,45.107360649,-80.117747879,-1
22013000000,44.9990640982,-80.9977935424,1
22033000000,44.9990637619,-80.9977905096,1
22053000000,44.9990634378,-80.9977874731,1
22073000000,44.9990631264,-80.997784433,1
22092000000,44.9990628425,-80.9977815415,1
22118000000,44.9990624599,-80.9977774268,1
22130000000,44.999062245,-80.9977749853,1
22153000000,44.9990620141,-80.997772236,1
22173000000,44.9990617712,-80.9977691778,1
22192000000,44.9990615428,-80.9977661163,1
22212000000,44.9990613397,-80.9977632047,1
22234000000,44.9990611311,-80.9977599833,1
22253000000,44.9990609392,-80.9977567584,1
22277000000,44.9990607802,-80.9977538379,1
22293000000,44.9990606352,-80.9977509148,1
22319000000,44.9990604537,-80.9977467566,1
22337000000,44.9990603541,-80.9977441361,1
22352000000,44.9990602612,-80.9977413595,1
22372000000,44.9990601771,-80.9977384267,1
22396000000,44.999060104,-80.9977353374,1
22422000000,44.9990600285,-80.9977310091,1
22441000000,44.9990600042,-80.9977289984,1
22456000000,44.9990599777,-80.9977254393,1
22474000000,44.9990599717,-80.9977228074,1
22499000000,44.9990599843,-80.9977189352,1
22513000000,44.9990600023,-80.9977167659,1
22531000000,44.9990600435,-80.997713511,1
22552000000,44.9990600957,-80.9977105651,1
22573000000,44.9990601656,-80.9977074635,1
22592000000,44.9990602464,-80.9977045163,1
22613000000,44.9990603572,-80.9977011033,1
22640000000,44.9990605184,-80.9976969138,1
22652000000,44.9990605917,-80.9976952068,1
22673000000,44.9990607433,-80.9976919478,1
22696000000,44.9990609271,-80.9976883783,1
22712000000,44.9990610657,-80.9976858952,1
22732000000,44.9990612606,-80.9976826362,1
22757000000,44.99906147,-80.9976793776,1
22773000000,44.999061672,-80.9976764296,1
22792000000,44.9990618971,-80.9976733268,1
22819000000,44.9990621224,-80.9976703794,1
22832000000,44.9990623711,-80.9976672773,1
22852000000,44.9990626447,-80.9976640204,1
22876000000,44.9990629585,-80.9976604541,1
22892000000,44.9990631853,-80.9976579736,1
22914000000,44.9990635083,-80.9976545636,1
22932000000,44.9990637973,-80.997651619,1
22952000000,44.9990640952,-80.997648675,1
22972000000,44.9990644342,-80.9976454214,1
22992000000,44.999064749,-80.997642478,1
23017000000,44.9990651742,-80.9976386054,1
23037000000,44.9990654526,-80.9976361273,1
23052000000,44.999065807,-80.9976330297,1
23073000000,44.9990661864,-80.9976297775,1
23092000000,44.9990665357,-80.997626835,1
23112000000,44.9990669088,-80.9976237376,1
23135000000,44.9990672865,-80.9976206399,1
23153000000,44.9990676686,-80.9976175419,1
23173000000,44.9990680542,-80.9976144434,1
23192000000,44.999068444,-80.9976113446,1
23212000000,44.9990688363,-80.997608245,1
23238000000,44.9990692312,-80.9976051448,1
23253000000,44.9990696279,-80.9976020436,1
23273000000,44.9990700256,-80.9975989414,1
23293000000,44.999070424,-80.997595838,1
23306000000,44.9990708222,-80.9975927332,1
23335000000,44.9990712598,-80.9975893163,1
23353000000,44.9990716171,-80.9975865193,1
23373000000,44.9990720128,-80.9975834099,1
23393000000,44.9990724069,-80.9975802988,1
23413000000,44.999072799,-80.9975771858,1
23435000000,44.9990731888,-80.997574071,1
23452000000,44.9990735564,-80.99757111,1
23473000000,44.9990739398,-80.9975679911,1
23493000000,44.999074357,-80.9975645576,1
23512000000,44.9990746944,-80.9975617463,1
23533000000,44.999075083,-80.9975584639,1
23553000000,44.999075448,-80.9975553352,1
23589000000,44.9990759495,-80.9975509506,1
23592000000,44.9990761609,-80.99754907,1
23613000000,44.9990765079,-80.9975459333,1
23632000000,44.9990768309,-80.9975429509,1
23652000000,44.9990771637,-80.9975398087,1
23675000000,44.9990775526,-80.9975360342,1
23692000000,44.999077821,-80.9975333579,1
23715000000,44.9990781439,-80.9975300491,1
23733000000,44.9990784278,-80.9975270525,1
23753000000,44.9990787174,-80.9975238952,1
23773000000,44.9990789972,-80.9975207349,1
23793000000,44.9990792667,-80.9975175714,1
23814000000,44.9990795383,-80.9975142465,1
23832000000,44.9990797616,-80.9975113938,1
23852000000,44.9990799991,-80.9975082213,1
23872000000,44.9990802253,-80.9975050458,1
23904000000,44.9990805629,-80.9974999588,1
23912000000,44.9990806523,-80.9974985267,1
23932000000,44.999080833,-80.9974955015,1
23952000000,44.9990810112,-80.9974923144,1
23973000000,44.9990811849,-80.997488965,1
23992000000,44.9990813374,-80.9974857723,1
24002000000,45.5726707065,-80.041125914,-1
24014000000,44.999081477,-80.9974825771,1
24033000000,44.9990816038,-80.9974793793,1
24057000000,44.9990817386,-80.9974755389,1
24073000000,44.999081818,-80.9974729767,1
24093000000,44.9990819053,-80.9974697721,1
24117000000,44.9990819795,-80.9974665653,1
24134000000,44.9990820403,-80.9974633565,1
24165000000,44.9990821064,-80.9974585397,1
24173000000,44.9990821217,-80.9974569333,1
24192000000,44.9990821423,-80.9974537191,1
24213000000,44.9990821495,-80.9974505034,1
24233000000,44.999082143,-80.9974472862,1
24252000000,44.9990821245,-80.9974442285,1
24272000000,44.9990820923,-80.9974410086,1
24295000000,44.9990820363,-80.9974371432,1
24311000000,44.9990819853,-80.9974344042,1
24332000000,44.9990819135,-80.997431181,1
24365000000,44.999081801,-80.9974269895,1
24372000000,44.9990817367,-80.9974248932,1
24393000000,44.9990816217,-80.9974215062,1
24413000000,44.9990814998,-80.9974182797,1
24435000000,44.9990813593,-80.9974148912,1
24452000000,44.9990812216,-80.9974118249,1
24473000000,44.9990810658,-80.9974085966,1
24482000000,44.9990808992,-80.9974053678,1
24512000000,44.9990807227,-80.9974021385,1
24541000000,44.9990805369,-80.9973989085,1
24550000000,44.999080342,-80.9973956782,1
24579000000,44.9990801387,-80.9973924473,1
24593000000,44.9990799272,-80.997389216,1
24612000000,44.999079719,-80.9973861457,1
24633000000,44.9990794811,-80.9973827517,1
24652000000,44.9990792477,-80.9973795186,1
24712000000,44.9990789234,-80.997375153,1
24713000000,44.9990785139,-80.9973698155,1
24713000000,44.9990785139,-80.9973698155,1
24733000000,44.9990782468,-80.9973664178,1
24754000000,44.9990779881,-80.9973631811,1
24777000000,44.9990776993,-80.9973596198,1
24793000000,44.9990774738,-80.9973568671,1
24814000000,44.9990771788,-80.9973533038,1
24833000000,44.9990769354,-80.9973503873,1
24861000000,44.9990766638,-80.9973471457,1
24873000000,44.9990763778,-80.9973437405,1
24900000000,44.999076023,-80.9973395226,1
24912000000,44.9990758457,-80.9973374128,1
24938000000,44.9990755323,-80.9973336784,1
24952000000,44.9990753153,-80.9973310793,1
24973000000,44.9990750325,-80.9973276663,1
24993000000,44.9990747655,-80.997324414,1
25025000000,44.999074371,-80.997319532,1
25032000000,44.9990742413,-80.9973179037,1
25058000000,44.9990739088,-80.9973136677,1
25074000000,44.9990737203,-80.9973112223,1
25095000000,44.9990734488,-80.9973076336,1
25116000000,44.999073208,-80.9973043689,1
25132000000,44.9990730081,-80.9973015921,1
25160000000,44.9990726902,-80.9972970149,1
25173000000,44.9990725586,-80.9972950518,1
25185000000,44.9990723457,-80.9972917781,1
25220000000,44.999072102,-80.9972878463,1
25240000000,44.9990718621,-80.997283747,1
25252000000,44.9990717615,-80.9972819421,1
25286000000,44.9990714702,-80.9972763587,1
25294000000,44.9990714221,-80.9972753727,1
25320000000,44.9990712175,-80.9972709328,1
25333000000,44.9990711268,-80.9972687937,1
25352000000,44.9990709947,-80.997265501,1
25373000000,44.9990708793,-80.9972622057,1
25393000000,44.9990707739,-80.997258743,1
25414000000,44.9990706856,-80.9972554432,1
25435000000,44.999070605,-80.9972518109,1
25453000000,44.9990705544,-80.9972490026,1
25472000000,44.9990705088,-80.997245697,1
25492000000,44.9990704784,-80.9972423897,1
25512000000,44.9990704637,-80.9972390807,1
25532000000,44.9990704649,-80.9972357702,1
25558000000,44.9990704911,-80.9972314646,1
25572000000,44.9990705169,-80.9972291453,1
25592000000,44.9990705677,-80.9972258313,1
25613000000,44.9990706366,-80.9972225168,1
25632000000,44.9990707234,-80.9972192015,1
25653000000,44.999070828,-80.9972158857,1
25673000000,44.9990709512,-80.9972125698,1
25693000000,44.9990711007,-80.9972090882,1
25712000000,44.9990712454,-80.9972061041,1
25743000000,44.9990715412,-80.9972008,1
25753000000,44.9990716334,-80.9971993086,1
25773000000,44.9990718524,-80.997195995,1
25792000000,44.9990720787,-80.9971928483,1
25812000000,44.9990723365,-80.9971895374,1
25840000000,44.9990727296,-80.9971849046,1
25853000000,44.9990729261,-80.997182755,1
25872000000,44.999073229,-80.9971796152,1
25897000000,44.9990736723,-80.9971753218,1
25913000000,44.9990739433,-80.9971728469,1
25935000000,44.9990743808,-80.9971690551,1
25952000000,44.9990747009,-80.9971664198,1
25975000000,44.9990751619,-80.9971627998,1
25994000000,44.9990756019,-80.9971595127,1
25997000000,45.0594451283,-81.7647223391,-1
26014000000,44.999076062,-80.9971562293,1
26037000000,44.9990765665,-80.997152786,1
26053000000,44.9990770159,-80.9971498382,1
26077000000,44.9990775603,-80.9971464036,1
26092000000,44.9990780712,-80.9971433008,1
26113000000,44.9990786233,-80.9971400373,1
26133000000,44.9990792003,-80.9971367807,1
26152000000,44.9990797948,-80.9971335291,1
26175000000,44.9990805014,-80.9971297959,1
26187000000,44.9990810396,-80.9971270411,1
26222000000,44.9990816894,-80.9971238052,1
26236000000,44.9990824249,-80.9971202522,1
26252000000,44.9990830426,-80.9971173504,1
26280000000,44.9990840309,-80.9971128455,1
26292000000,44.9990844282,-80.997111079,1
26313000000,44.9990852027,-80.997107712,1
26332000000,44.9990859569,-80.9971045114,1
26352000000,44.9990867274,-80.9971013167,1
26373000000,44.9990875139,-80.9970981279,1
26392000000,44.9990883158,-80.9970949451,1
26412000000,44.9990891741,-80.9970916095,1
26432000000,44.9990899227,-80.9970887556,1
26452000000,44.999090811,-80.9970854322,1
26473000000,44.9990916715,-80.9970822732,1
26494000000,44.9990925901,-80.9970789626,1
26515000000,44.9990933896,-80.9970761303,1
26532000000,44.9990943356,-80.9970728315,1
26553000000,44.9990952496,-80.9970696957,1
26573000000,44.9990962235,-80.9970664094,1
26593000000,44.9990971626,-80.9970632846,1
26617000000,44.9990980656,-80.9970603211,1
26632000000,44.9990989785,-80.997057362,1
26652000000,44.9990999972,-80.9970540956,1
26676000000,44.9991011745,-80.9970503685,1
26693000000,44.999101967,-80.9970478872,1
26713000000,44.9991029654,-80.997044789,1
26735000000,44.9991039714,-80.9970416941,1
26752000000,44.9991049846,-80.9970386022,1
26772000000,44.9991060032,-80.9970355124,1
26792000000,44.9991070298,-80.9970324261,1
26832000000,44.9991090992,-80.9970262593,1
26832000000,44.9991090992,-80.9970262593,1
26852000000,44.9991101416,-80.9970231787,1
26873000000,44.9991111888,-80.9970200996,1
26896000000,44.9991123984,-80.9970165604,1
26919000000,44.9991134017,-80.9970136378,1
26932000000,44.9991143022,-80.9970110236,1
26952000000,44.9991154177,-80.9970077947,1
26990000000,44.999117337,-80.9970022599,1
26993000000,44.9991176042,-80.9970014912,1
27013000000,44.9991186204,-80.9969985698,1
27033000000,44.9991197455,-80.9969953405,1
27052000000,44.999120765,-80.9969924183,1
27072000000,44.9991217854,-80.9969894953,1
27092000000,44.9991228604,-80.9969864173,1
27119000000,44.9991239893,-80.9969831839,1
27132000000,44.9991250649,-80.9969801031,1
27153000000,44.9991261402,-80.9969770203,1
27172000000,44.9991271611,-80.9969740897,1
27192000000,44.9991282887,-80.9969708485,1
27213000000,44.9991293616,-80.9969677591,1
27239000000,44.9991307542,-80.9969637391,1
27259000000,44.9991318767,-80.9969604886,1
27272000000,44.9991325703,-80.9969584747,1
27292000000,44.9991336355,-80.9969553736,1
27313000000,44.9991346982,-80.9969522692,1
27333000000,44.999135758,-80.9969491613,1
27352000000,44.999136762,-80.9969462055,1
27372000000,44.9991378159,-80.9969430905,1
27392000000,44.9991389189,-80.9969398155,1
27417000000,44.9991400178,-80.996936536,1
27439000000,44.9991412165,-80.9969329389,1
27453000000,44.9991420472,-80.9969304333,1
27473000000,44.9991431334,-80.9969271403,1
27493000000,44.9991441124,-80.9969241568,1
27517000000,44.999145292,-80.9969205398,1
27533000000,44.9991461602,-80.9969178626,1
27552000000,44.9991471776,-80.9969147089,1
27573000000,44.9991481905,-80.9969115505,1
27593000000,44.9991492491,-80.9969082294,1
27613000000,44.9991502027,-80.9969052203,1
27632000000,44.9991511523,-80.9969022072,1
27652000000,44.999152197,-80.9968988722,1
27674000000,44.9991531379,-80.9968958505,1
27693000000,44.999154173,-80.9968925062,1
27713000000,44.9991551542,-80.9968893165,1
27742000000,44.9991565691,-80.9968846838,1
27752000000,44.9991570548,-80.9968830841,1
27773000000,44.9991581197,-80.9968795613,1
27793000000,44.999159035,-80.9968765147,1
27812000000,44.9991599943,-80.9968733036,1
27837000000,44.9991611876,-80.996869284,1
27857000000,44.9991621376,-80.9968660637,1
27872000000,44.9991628,-80.9968638071,1
27908000000,44.9991644949,-80.9968579957,1
27908000000,44.9991647293,-80.9968571876,1
27939000000,44.9991659451,-80.9968529818,1
27952000000,44.9991665508,-80.9968508766,1
27976000000,44.9991676659,-80.9968469865,1
27995000000,44.9991685457,-80.9968439036,1
28003000000,45.8881675702,-81.6189057402,-1
28016000000,44.9991695615,-80.9968403303,1
28035000000,44.9991703908,-80.9968374043,1
28053000000,44.9991712186,-80.9968344761,1
28073000000,44.9991721371,-80.9968312202,1
28095000000,44.9991731456,-80.9968276359,1
28113000000,44.9991739699,-80.9968247013,1
28133000000,44.9991748849,-80.9968214387,1
28152000000,44.9991757536,-80.9968183374,1
28174000000,44.9991766674,-80.9968150709,1
28193000000,44.9991776267,-80.9968116393,1
28212000000,44.9991785408,-80.9968083697,1
28235000000,44.9991795927,-80.996804608,1
28257000000,44.9991804165,-80.9968016631,1
28272000000,44.9991812409,-80.996798717,1
28296000000,44.9991823884,-80.9967946246,1
28313000000,44.9991831242,-80.9967920049,1
28332000000,44.9991840457,-80.9967887298,1
28352000000,44.9991849701,-80.9967854548,1
28387000000,44.9991862699,-80.9967808703,1
28394000000,44.9991869226,-80.9967785785,1
28416000000,44.9991879526,-80.996774978,1
28433000000,44.9991887524,-80.9967721967,1
28452000000,44.9991896504,-80.9967690893,1
28472000000,44.9991906005,-80.9967658195,1
28494000000,44.9991915567,-80.9967625517,1
28512000000,44.9991925182,-80.9967592853,1
28532000000,44.9991934375,-80.9967561843,1
28553000000,44.9991944607,-80.9967527594,1
28574000000,44.9991954917,-80.9967493374,1
28593000000,44.9991964313,-80.9967462439,1
28627000000,44.9991974278,-80.9967429905,1
28633000000,44.9991984323,-80.9967397404,1
28653000000,44.9991994958,-80.9967363316,1
28672000000,44.9992004147,-80.9967334129,1
28693000000,44.9992014958,-80.9967300118,1
28717000000,44.9992027961,-80.9967259691,1
28732000000,44.999203583,-80.9967235468,1
28752000000,44.9992046419,-80.9967203218,1
28773000000,44.9992057113,-80.996717102,1
28792000000,44.9992067912,-80.9967138877,1
28814000000,44.9992078273,-80.9967108394,1
28832000000,44.9992089289,-80.9967076366,1
28850000000,44.9992100981,-80.9967042806,1
28878000000,44.9992115074,-80.9967002952,1
28892000000,44.9992123622,-80.9966979093,1
28914000000,44.9992135706,-80.9966945758,1
28933000000,44.9992147347,-80.996691409,1
28953000000,44.9992158525,-80.9966884076,1
28972000000,44.9992169821,-80.9966854136,1
