rosbagTimestamp,latitude,longitude,label
1694000000,44.9990998072,-80.9994392039,1
1717000000,44.999099802,-80.999439207,1
1734000000,44.9990998069,-80.9994391769,1
1755000000,44.9990998048,-80.9994391593,1
1774000000,44.9990998054,-80.9994391563,1
1795000000,44.9990998052,-80.9994391659,1
1814000000,44.9990998052,-80.9994391859,1
1835000000,44.999099805,-80.9994392033,1
1854000000,44.9990998044,-80.99943919,1
1875000000,44.9990998047,-80.9994391869,1
1894000000,44.9990998041,-80.9994391825,1
1914000000,44.9990998041,-80.9994391771,1
1934000000,44.999099804,-80.9994391732,1
1954000000,44.9990998037,-80.9994391694,1
1974000000,44.9990998031,-80.9994391652,1
1995000000,44.9990998025,-80.9994391609,1
2015000000,44.9990998027,-80.9994391564,1
2034000000,44.9990998023,-80.9994391524,1
2054000000,44.9990998016,-80.9994391481,1
2074000000,44.9990998015,-80.999439144,1
2095000000,44.9990998014,-80.9994391397,1
2115000000,44.9990998013,-80.9994391357,1
2135000000,44.9990998013,-80.9994391318,1
2154000000,44.9990998012,-80.999439128,1
2174000000,44.9990998012,-80.9994391242,1
2198000000,44.9990998012,-80.9994391198,1
2215000000,44.9990998011,-80.999439117,1
2234000000,44.9990998011,-80.9994391135,1
2254000000,44.999099801,-80.99943911,1
2275000000,44.999099801,-80.9994391066,1
2295000000,44.999099801,-80.9994391032,1
2315000000,44.9990998009,-80.9994390999,1
2334000000,44.9990998009,-80.9994390966,1
2354000000,44.9990998009,-80.9994390933,1
2374000000,44.9990998008,-80.99943909,1
2394000000,44.9990998008,-80.9994390868,1
2414000000,44.9990998007,-80.9994390838,1
2434000000,44.9990998007,-80.9994390806,1
2454000000,44.9990998007,-80.9994390773,1
2474000000,44.9990998006,-80.9994390743,1
2495000000,44.9990998006,-80.999439071,1
2514000000,44.9990998005,-80.9994390679,1
2536000000,44.9990998005,-80.9994390648,1
2555000000,44.9990998005,-80.9994390617,1
2575000000,44.9990998004,-80.9994390585,1
2595000000,44.9990998004,-80.9994390554,1
2614000000,44.9990998004,-80.9994390525,1
2636000000,44.9990998003,-80.9994390491,1
2654000000,44.9990998003,-80.9994390463,1
2675000000,44.9990998002,-80.9994390433,1
2694000000,44.9990998002,-80.9994390402,1
2716000000,44.9990998002,-80.9994390372,1
2734000000,44.9990998001,-80.9994390341,1
2755000000,44.9990998001,-80.9994390311,1
2774000000,44.9990998,-80.9994390281,1
2795000000,44.9990998,-80.999439025,1
2815000000,44.9990998,-80.999439022,1
2835000000,44.9990997999,-80.9994390188,1
2858000000,44.9990997999,-80.9994390159,1
2874000000,44.9990997998,-80.9994390129,1
2894000000,44.9990997998,-80.9994390099,1
2914000000,44.9990997998,-80.9994390068,1
2934000000,44.9990997997,-80.9994390038,1
2954000000,44.9990997997,-80.9994390008,1
2977000000,44.9990997996,-80.9994389973,1
3005000000,44.9990997996,-80.9994389932,1
3014000000,44.9990997996,-80.9994389917,1
3044000000,44.9990997995,-80.9994389875,1
3054000000,44.9990997995,-80.9994389857,1
3075000000,44.9990997994,-80.9994389825,1
3094000000,44.9990997994,-80.9994389798,1
3115000000,44.9990997994,-80.9994389766,1
3135000000,44.9990997993,-80.9994389736,1
3154000000,44.9990997992,-80.9994389707,1
3175000000,44.9990997992,-80.9994389676,1
3195000000,44.9990997992,-80.9994389644,1
3214000000,44.9990997991,-80.9994389617,1
3234000000,44.9990997991,-80.9994389585,1
3254000000,44.999099799,-80.9994389557,1
3275000000,44.999099799,-80.9994389525,1
3296000000,44.999099799,-80.9994389492,1
3315000000,44.9990997989,-80.9994389465,1
3334000000,44.9990997989,-80.9994389436,1
3354000000,44.9990997988,-80.9994389406,1
3375000000,44.9990997988,-80.9994389374,1
3395000000,44.9990997988,-80.9994389344,1
3414000000,44.9990997987,-80.9994389314,1
3434000000,44.9990997987,-80.9994389284,1
3455000000,44.9990997987,-80.9994389254,1
3474000000,44.9990997986,-80.9994389223,1
3495000000,44.9990997986,-80.9994389193,1
3514000000,44.9990997985,-80.9994389163,1
3538000000,44.9990997985,-80.9994389133,1
3553000000,44.9990997984,-80.9994389091,1
3574000000,44.9990997984,-80.9994389073,1
3595000000,44.9990997983,-80.9994389041,1
3614000000,44.9990997983,-80.9994389012,1
3635000000,44.9990997983,-80.9994388982,1
3653000000,44.9990997982,-80.9994388952,1
3674000000,44.9990997982,-80.9994388923,1
3694000000,44.9990997981,-80.9994388892,1
3714000000,44.9990997981,-80.9994388863,1
3734000000,44.9990997981,-80.9994388831,1
3754000000,44.999099798,-80.9994388801,1
3775000000,44.999099798,-80.9994388771,1
3794000000,44.9990997979,-80.9994388741,1
3815000000,44.9990997978,-80.9994388709,1
3835000000,44.9990997978,-80.9994388681,1
3855000000,44.9990997978,-80.9994388651,1
3874000000,44.9990997977,-80.9994388622,1
3897000000,44.9990997977,-80.9994388583,1
3914000000,44.9990997976,-80.9994388561,1
3934000000,44.9990997976,-80.999438853,1
3955000000,44.9990997976,-80.99943885,1
3974000000,44.9990997975,-80.9994388471,1
3995000000,44.9990997975,-80.9994388439,1
4014000000,44.9990997974,-80.9994388411,1
4034000000,44.9990997974,-80.9994388381,1
4054000000,44.9990997974,-80.9994388349,1
4074000000,44.9990997973,-80.9994388319,1
4095000000,44.9990997972,-80.9994388287,1
4115000000,44.9990997972,-80.9994388259,1
4135000000,44.9990997972,-80.9994388228,1
4162000000,44.9990997971,-80.9994388198,1
4175000000,44.9990997971,-80.9994388168,1
4196000000,44.999099797,-80.9994388135,1
4215000000,44.999099797,-80.9994388106,1
4234000000,44.999099797,-80.9994388078,1
4255000000,44.9990997969,-80.9994388047,1
4276000000,44.9990997968,-80.9994388016,1
4294000000,44.9990997968,-80.9994387989,1
4315000000,44.9990997968,-80.9994387957,1
4335000000,44.9990997967,-80.9994387927,1
4355000000,44.9990997967,-80.9994387897,1
4374000000,44.9990997966,-80.9994387868,1
4395000000,44.9990997966,-80.9994387836,1
4415000000,44.9990997965,-80.9994387806,1
4434000000,44.9990997965,-80.9994387776,1
4455000000,44.9990997964,-80.9994387746,1
4480000000,44.9990997964,-80.9994387707,1
4496000000,44.9990997963,-80.9994387684,1
4516000000,44.9990997963,-80.9994387652,1
4535000000,44.9990997963,-80.9994387625,1
4557000000,44.9990997962,-80.999438759,1
4575000000,44.9990997961,-80.9994387563,1
4595000000,44.9990997961,-80.9994387535,1
4614000000,44.999099796,-80.9994387506,1
4634000000,44.999099796,-80.9994387474,1
4655000000,44.999099796,-80.9994387444,1
4674000000,44.9990997959,-80.9994387414,1
4694000000,44.9990997959,-80.9994387385,1
4718000000,44.9990997958,-80.9994387354,1
4735000000,44.9990997958,-80.9994387322,1
4755000000,44.9990997958,-80.9994387293,1
4780000000,44.9990997957,-80.9994387256,1
4798000000,44.9990997957,-80.9994387233,1
4815000000,44.9990997956,-80.9994387203,1
4834000000,44.9990997956,-80.9994387173,1
4856000000,44.9990997955,-80.999438714,1
4874000000,44.9990997955,-80.9994387112,1
4894000000,44.9990997954,-80.9994387082,1
4914000000,44.9990997953,-80.9994387054,1
4941000000,44.9990997953,-80.9994387014,1
4954000000,44.9990997953,-80.9994386992,1
4974000000,44.9990997952,-80.9994386962,1
4994000000,44.9990997952,-80.9994386931,1
5014000000,44.9990997951,-80.9994386901,1
5035000000,44.999099795,-80.999438687,1
5055000000,44.999099795,-80.9994386841,1
5074000000,44.999099795,-80.9994386811,1
5095000000,44.9990997949,-80.9994386781,1
5114000000,44.9990997949,-80.9994386747,1
5134000000,44.9990997948,-80.9994386699,1
5154000000,44.9990997948,-80.999438663,1
5175000000,44.9990997947,-80.9994386537,1
5194000000,44.9990997946,-80.9994386427,1
5218000000,44.9990997945,-80.9994386272,1
5238000000,44.9990997944,-80.9994386132,1
5254000000,44.9990997943,-80.9994386016,1
5274000000,44.9990997941,-80.9994385864,1
5287000000,44.9990997939,-80.9994385713,1
5315000000,44.9990997938,-80.9994385538,1
5334000000,44.9990997936,-80.9994385373,1
5354000000,44.9990997934,-80.9994385192,1
5375000000,44.9990997932,-80.9994384994,1
5394000000,44.999099793,-80.9994384807,1
5420000000,44.9990997929,-80.9994384571,1
5434000000,44.9990997927,-80.9994384378,1
5466000000,44.9990997924,-80.9994384054,1
5477000000,44.9990997923,-80.9994383927,1
5494000000,44.9990997921,-80.99943837,1
5515000000,44.9990997919,-80.9994383441,1
5534000000,44.9990997917,-80.9994383185,1
5555000000,44.9990997914,-80.999438292,1
5575000000,44.9990997912,-80.9994382631,1
5595000000,44.999099791,-80.9994382361,1
5615000000,44.9990997907,-80.9994382053,1
5634000000,44.9990997905,-80.9994381765,1
5656000000,44.9990997902,-80.9994381436,1
5675000000,44.99909979,-80.9994381129,1
5695000000,44.9990997897,-80.9994380779,1
5718000000,44.9990997894,-80.9994380452,1
5737000000,44.9990997891,-80.9994380097,1
5754000000,44.9990997889,-80.9994379731,1
5781000000,44.9990997885,-80.9994379258,1
5794000000,44.9990997882,-80.9994378966,1
5815000000,44.9990997879,-80.9994378565,1
5835000000,44.9990997875,-80.9994378151,1
5854000000,44.9990997872,-80.9994377746,1
5874000000,44.9990997869,-80.9994377284,1
5895000000,44.9990997865,-80.9994376828,1
5914000000,44.999099786,-80.9994376357,1
5937000000,44.9990997855,-80.9994375821,1
5956000000,44.9990997851,-80.9994375315,1
5975000000,44.9990997846,-80.9994374846,1
5999000000,44.9990997839,-80.9994374226,1
6014000000,44.9990997835,-80.9994373752,1
6039000000,44.9990997829,-80.9994373177,1
6054000000,44.9990997822,-80.9994372584,1
6074000000,44.9990997816,-80.9994372002,1
6094000000,44.9990997809,-80.9994371371,1
6117000000,44.99909978,-80.999437062,1
6135000000,44.9990997793,-80.9994370013,1
6154000000,44.9990997785,-80.9994369353,1
6175000000,44.9990997776,-80.9994368601,1
6194000000,44.9990997766,-80.9994367862,1
6214000000,44.9990997756,-80.99943671,1
6236000000,44.9990997745,-80.9994366314,1
6257000000,44.9990997733,-80.9994365463,1
6275000000,44.9990997721,-80.9994364628,1
6294000000,44.9990997709,-80.999436381,1
6315000000,44.9990997695,-80.9994362879,1
6340000000,44.9990997677,-80.9994361733,1
6355000000,44.9990997666,-80.9994361073,1
6374000000,44.999099765,-80.9994360106,1
6394000000,44.9990997633,-80.999435916,1
6415000000,44.9990997615,-80.9994358085,1
6434000000,44.9990997595,-80.9994357031,1
6455000000,44.9990997575,-80.9994355945,1
6476000000,44.9990997551,-80.9994354716,1
6494000000,44.9990997531,-80.999435368,1
6515000000,44.9990997505,-80.9994352439,1
6534000000,44.9990997481,-80.9994351285,1
6555000000,44.9990997453,-80.9994350036,1
6583000000,44.9990997411,-80.9994348165,1
6595000000,44.9990997394,-80.9994347436,1
6616000000,44.999099736,-80.9994346013,1
6634000000,44.9990997329,-80.9994344762,1
6654000000,44.9990997293,-80.9994343336,1
6675000000,44.9990997253,-80.9994341799,1
6696000000,44.9990997211,-80.9994340219,1
6714000000,44.9990997172,-80.999433883,1
6735000000,44.9990997123,-80.9994337089,1
6762000000,44.9990997057,-80.9994334968,1
6774000000,44.999099702,-80.9994333881,1
6796000000,44.9990996966,-80.9994332175,1
6814000000,44.9990996908,-80.9994330515,1
6836000000,44.9990996834,-80.9994328454,1
6855000000,44.9990996777,-80.9994326801,1
6875000000,44.9990996709,-80.9994324922,1
6895000000,44.9990996641,-80.9994322998,1
6919000000,44.9990996546,-80.999432063,1
6937000000,44.9990996481,-80.999431881,1
6954000000,44.9990996405,-80.9994316954,1
6975000000,44.9990996317,-80.9994314848,1
6994000000,44.9990996225,-80.9994312694,1
7009000000,44.9990996126,-80.9994310492,1
7034000000,44.9990996027,-80.9994308242,1
7054000000,44.9990995921,-80.9994305944,1
7075000000,44.9990995809,-80.9994303596,1
7099000000,44.9990995675,-80.9994300836,1
7115000000,44.9990995565,-80.999429863,1
7135000000,44.9990995438,-80.999429613,1
7158000000,44.999099529,-80.9994293323,1
7174000000,44.9990995179,-80.9994291242,1
7194000000,44.9990995026,-80.9994288462,1
7215000000,44.9990994874,-80.9994285762,1
7234000000,44.9990994724,-80.9994283149,1
7254000000,44.9990994551,-80.9994280206,1
7275000000,44.999099437,-80.9994277205,1
7295000000,44.9990994199,-80.9994274441,1
7318000000,44.9990994002,-80.999427133,1
7337000000,44.9990993797,-80.9994268161,1
7355000000,44.9990993613,-80.9994265398,1
7374000000,44.9990993412,-80.9994262435,1
7395000000,44.9990993181,-80.9994259104,1
7414000000,44.9990992952,-80.9994255877,1
7434000000,44.9990992713,-80.9994252595,1
7458000000,44.9990992426,-80.9994248751,1
7475000000,44.9990992206,-80.9994245863,1
7495000000,44.9990991937,-80.9994242412,1
7514000000,44.9990991658,-80.9994238905,1
7537000000,44.9990991338,-80.999423498,1
7555000000,44.9990991066,-80.9994231716,1
7580000000,44.9990990752,-80.9994228034,1
7595000000,44.999099041,-80.9994224105,1
7615000000,44.9990990071,-80.9994220301,1
7635000000,44.9990989737,-80.9994216632,1
7655000000,44.9990989372,-80.999421271,1
7674000000,44.9990989013,-80.9994208928,1
7695000000,44.9990988601,-80.9994204684,1
7714000000,44.9990988215,-80.9994200785,1
7735000000,44.9990987751,-80.9994196201,1
7755000000,44.9990987313,-80.9994191968,1
7774000000,44.9990986882,-80.9994187889,1
7795000000,44.9990986412,-80.9994183534,1
7814000000,44.9990985926,-80.9994179115,1
7836000000,44.9990985397,-80.9994174407,1
7899000000,44.9990983688,-80.999415986,1
7899000000,44.9990983688,-80.999415986,1
7919000000,44.9990983077,-80.9994154871,1
7938000000,44.9990982506,-80.9994150296,1
7959000000,44.9990981885,-80.9994145419,1
7978000000,44.9990981244,-80.9994140478,1
8001000000,44.9990980582,-80.9994135474,1
8018000000,44.9990979933,-80.9994130661,1
8038000000,44.9990979193,-80.9994125274,1
8058000000,44.9990978465,-80.9994120078,1
8078000000,44.9990977714,-80.9994114818,1
8099000000,44.99909769,-80.9994109226,1
8125000000,44.9990975897,-80.9994102476,1
8156000000,44.9990974771,-80.9994095074,1
8164000000,44.9990974256,-80.9994091746,1
8187000000,44.9990973242,-80.9994085303,1
8198000000,44.9990972746,-80.9994082192,1
8218000000,44.9990971822,-80.9994076485,1
8238000000,44.9990970822,-80.9994070423,1
8259000000,44.9990969793,-80.9994064289,1
8279000000,44.9990968835,-80.9994058678,1
8299000000,44.9990967798,-80.9994052708,1
8319000000,44.9990966731,-80.9994046671,1
8338000000,44.999096569,-80.9994040875,1
8359000000,44.9990964507,-80.99940344,1
8388000000,44.9990963055,-80.9994026596,1
8399000000,44.9990962099,-80.9994021548,1
8423000000,44.9990960627,-80.9994013896,1
8447000000,44.9990959171,-80.9994006474,1
8458000000,44.9990958394,-80.9994002567,1
8478000000,44.9990957072,-80.9993996004,1
8499000000,44.9990955715,-80.9993989374,1
8519000000,44.9990954253,-80.9993982342,1
8539000000,44.9990952895,-80.9993975917,1
8561000000,44.9990951282,-80.9993968403,1
8579000000,44.9990949929,-80.9993962196,1
8598000000,44.9990948389,-80.9993955237,1
8619000000,44.9990946732,-80.9993947858,1
8638000000,44.9990945276,-80.9993941475,1
8659000000,44.9990943538,-80.9993933959,1
8678000000,44.999094184,-80.9993926731,1
8700000000,44.9990940102,-80.9993919436,1
8719000000,44.9990938323,-80.9993912073,1
8738000000,44.9990936502,-80.9993904641,1
8758000000,44.9990934733,-80.9993897517,1
8780000000,44.999093254,-80.999388881,1
8801000000,44.9990930786,-80.9993881933,1
8819000000,44.9990928896,-80.9993874613,1
8847000000,44.9990926247,-80.9993864496,1
8859000000,44.9990924686,-80.9993858608,1
8883000000,44.9990922567,-80.9993850697,1
8901000000,44.9990920187,-80.9993841916,1
8918000000,44.99909182,-80.9993834672,1
8940000000,44.9990915837,-80.999382615,1
8959000000,44.9990913542,-80.9993817964,1
8985000000,44.9990911084,-80.9993809296,1
8998000000,44.9990908938,-80.9993801807,1
9019000000,44.9990906511,-80.9993793421,1
9040000000,44.9990903915,-80.9993784541,1
9058000000,44.9990901523,-80.9993776443,1
9078000000,44.9990899091,-80.9993768283,1
9098000000,44.9990896356,-80.9993759193,1
9123000000,44.9990893034,-80.9993748273,1
9140000000,44.9990890735,-80.9993740787,1
9159000000,44.9990888265,-80.9993732807,1
9178000000,44.9990885478,-80.9993723877,1
9201000000,44.9990882216,-80.9993713524,1
9219000000,44.9990879621,-80.9993705359,1
9238000000,44.9990876843,-80.9993696683,1
9258000000,44.9990873874,-80.9993687485,1
9278000000,44.999087101,-80.9993678684,1
9302000000,44.9990867334,-80.9993667481,1
9319000000,44.999086469,-80.9993659486,1
9338000000,44.9990861537,-80.9993650017,1
9358000000,44.999085834,-80.9993640478,1
9378000000,44.9990855099,-80.999363087,1
9400000000,44.9990851814,-80.9993621193,1
9418000000,44.9990848654,-80.9993611935,1
9445000000,44.99908441,-80.9993598668,1
9459000000,44.9990841709,-80.9993591739,1
9478000000,44.999083826,-80.9993581778,1
9499000000,44.9990834774,-80.9993571745,1
9518000000,44.999083125,-80.9993561639,1
9538000000,44.9990827869,-80.999355197,1
9559000000,44.9990824096,-80.9993541206,1
9578000000,44.9990820652,-80.9993531396,1
9598000000,44.9990816812,-80.9993520473,1
9619000000,44.999081312,-80.9993509984,1
9639000000,44.9990809412,-80.999349942,1
9659000000,44.9990805679,-80.9993488776,1
9683000000,44.9990801166,-80.9993475894,1
9704000000,44.9990797189,-80.9993464527,1
9722000000,44.9990793574,-80.9993454163,1
9738000000,44.9990790517,-80.9993445378,1
9759000000,44.9990786681,-80.999343432,1
9792000000,44.9990780318,-80.9993415885,1
9803000000,44.9990778964,-80.9993411944,1
9825000000,44.9990774892,-80.9993400057,1
9838000000,44.9990771198,-80.9993389218,1
9859000000,44.9990767106,-80.9993377143,1
9887000000,44.9990763395,-80.9993366132,1
9899000000,44.9990759484,-80.9993354451,1
9919000000,44.9990755373,-80.9993342085,1
9939000000,44.999075165,-80.9993330807,1
9967000000,44.9990746162,-80.9993314029,1
9979000000,44.9990743614,-80.9993306174,1
9998000000,44.9990739891,-80.999329462,1
10019000000,44.9990735974,-80.9993282362,1
10038000000,44.9990732257,-80.9993270625,1
10059000000,44.9990728155,-80.9993257547,1
10079000000,44.9990724061,-80.9993244357,1
10098000000,44.9990720558,-80.9993232961,1
10118000000,44.9990716675,-80.9993220202,1
10131000000,41.5770890513,-88.8511191757,-1
10139000000,44.9990712608,-80.9993206693,1
10163000000,44.9990707977,-80.9993191115,1
10179000000,44.9990704901,-80.9993180646,1
10199000000,44.999070107,-80.9993167466,1
10219000000,44.9990697261,-80.999315418,1
10240000000,44.9990693096,-80.9993139443,1
10258000000,44.9990689711,-80.999312729,1
10285000000,44.9990684862,-80.9993109582,1
10298000000,44.9990682459,-80.9993100659,1
10318000000,44.9990678609,-80.9993086146,1
10340000000,44.9990674986,-80.999307221,1
10358000000,44.9990671587,-80.9993058864,1
10379000000,44.9990667704,-80.999304328,1
10401000000,44.9990663884,-80.9993027553,1
10418000000,44.9990661145,-80.9993016025,1
10439000000,44.9990657604,-80.9993000776,1
10469000000,44.9990652822,-80.99929795,1
10479000000,44.9990651041,-80.9992971363,1
10498000000,44.999064801,-80.9992957224,1
10519000000,44.9990644727,-80.999294147,1
10539000000,44.9990641669,-80.9992926342,1
10558000000,44.9990638682,-80.9992911093,1
10579000000,44.9990635768,-80.9992895724,1
10601000000,44.9990632646,-80.9992878679,1
10620000000,44.9990630028,-80.9992863842,1
10639000000,44.9990627479,-80.9992848898,1
10659000000,44.9990624877,-80.9992833053,1
10681000000,44.9990622111,-80.9992815487,1
10699000000,44.9990619929,-80.9992801008,1
10718000000,44.99906177,-80.9992785624,1
10739000000,44.9990615336,-80.9992768498,1
10760000000,44.9990613073,-80.9992751246,1
10780000000,44.9990611116,-80.9992735527,1
10799000000,44.9990609152,-80.9992718872,1
10820000000,44.9990607197,-80.9992701263,1
10838000000,44.9990605525,-80.9992685226,1
10859000000,44.9990603787,-80.9992667385,1
10881000000,44.9990602241,-80.9992650282,1
10898000000,44.9990600942,-80.9992634798,1
10923000000,44.9990599223,-80.9992612281,1
10940000000,44.9990598201,-80.9992597464,1
10959000000,44.999059721,-80.9992581694,1
10978000000,44.9990596264,-80.9992564959,1
11019000000,44.9990594582,-80.9992528538,1
11019000000,44.9990594582,-80.9992528538,1
11037000000,44.9990593971,-80.9992511522,1
11059000000,44.9990593421,-80.9992492616,1
11079000000,44.9990593021,-80.9992474516,1
11098000000,44.9990592754,-80.9992457239,1
11119000000,44.9990592589,-80.9992438051,1
11139000000,44.9990592562,-80.9992418769,1
11158000000,44.9990592657,-80.9992401243,1
11180000000,44.9990592912,-80.9992380857,1
11198000000,44.9990593215,-80.9992365037,1
11227000000,44.9990593947,-80.9992337917,1
11241000000,44.9990594397,-80.9992324767,1
11258000000,44.9990595032,-80.999230875,1
11278000000,44.9990595949,-80.999228889,1
11301000000,44.9990597061,-80.9992267999,1
11325000000,44.9990598394,-80.9992246067,1
11341000000,44.9990599356,-80.9992231715,1
11359000000,44.9990600753,-80.9992212521,1
11380000000,44.9990602358,-80.9992192297,1
11398000000,44.9990603849,-80.9992174908,1
11428000000,44.999060572,-80.9992154558,1
11440000000,44.9990607733,-80.9992134144,1
11460000000,44.9990609783,-80.9992114642,1
11478000000,44.9990611848,-80.9992096062,1
11498000000,44.9990614145,-80.9992076451,1
11518000000,44.9990616568,-80.9992056786,1
11539000000,44.9990619115,-80.9992037067,1
11559000000,44.9990621784,-80.9992017297,1
11582000000,44.9990625148,-80.9991993506,1
11600000000,44.9990627634,-80.999197661,1
11626000000,44.9990631598,-80.9991950701,1
11638000000,44.9990633494,-80.9991938716,1
11661000000,44.9990636908,-80.9991917701,1
11679000000,44.9990640274,-80.9991897639,1
11703000000,44.999064375,-80.9991877532,1
11718000000,44.999064733,-80.9991857379,1
11753000000,44.999065365,-80.9991823013,1
11757000000,44.9990654605,-80.9991817949,1
11778000000,44.9990658487,-80.9991797664,1
11798000000,44.9990662465,-80.9991777334,1
11818000000,44.9990666536,-80.9991756959,1
11840000000,44.9990671119,-80.9991734495,1
11858000000,44.9990675164,-80.999171505,1
11879000000,44.9990679504,-80.9991694537,1
11900000000,44.9990684151,-80.9991672949,1
11918000000,44.9990688204,-80.9991654404,1
11938000000,44.9990693011,-80.999163272,1
11967000000,44.9990699782,-80.9991602687,1
11978000000,44.9990702392,-80.9991591269,1
11999000000,44.9990707189,-80.9991570471,1
12018000000,44.9990712048,-80.9991549621,1
12039000000,44.9990716973,-80.9991528721,1
12060000000,44.9990721958,-80.9991507768,1
12079000000,44.9990726999,-80.9991486762,1
12098000000,44.9990731839,-80.9991466756,1
12119000000,44.9990737501,-80.9991443528,1
12138000000,44.9990742178,-80.9991424473,1
12158000000,44.9990747418,-80.9991403245,1
12179000000,44.9990752968,-80.9991380893,1
12198000000,44.9990758294,-80.9991359543,1
12219000000,44.9990763659,-80.9991338131,1
12239000000,44.9990769059,-80.9991316657,1
12261000000,44.9990775036,-80.9991292962,1
12279000000,44.9990779679,-80.9991274597,1
12300000000,44.9990785716,-80.999125076,1
12337000000,44.9990795934,-80.9991210483,1
12338000000,44.9990796488,-80.9991208299,1
12360000000,44.999080232,-80.9991185324,1
12381000000,44.9990808168,-80.9991162271,1
12406000000,44.9990815149,-80.9991134721,1
12418000000,44.9990818505,-80.9991121456,1
12442000000,44.9990825227,-80.9991094843,1
12458000000,44.9990829712,-80.999107704,1
12480000000,44.9990835602,-80.9991053597,1
12507000000,44.9990843735,-80.9991021078,1
12518000000,44.9990846538,-80.9991009825,1
12538000000,44.999085214,-80.9990987258,1
12559000000,44.9990858295,-80.9990962337,1
12578000000,44.9990863323,-80.9990941871,1
12598000000,44.9990869175,-80.9990917906,1
12618000000,44.9990874456,-80.999089614,1
12638000000,44.9990879998,-80.9990873142,1
12658000000,44.999088552,-80.9990850055,1
12678000000,44.9990891296,-80.9990825715,1
12699000000,44.9990897043,-80.9990801275,1
12718000000,44.9990902218,-80.9990779074,1
12738000000,44.9990907636,-80.9990755613,1
12761000000,44.9990913559,-80.9990729696,1
12778000000,44.9990918108,-80.9990709591,1
12800000000,44.9990924749,-80.9990679897,1
12818000000,44.9990928968,-80.9990660814,1
12840000000,44.9990934203,-80.9990636872,1
12859000000,44.9990939396,-80.9990612831,1
12884000000,44.9990945822,-80.999058264,1
12899000000,44.9990949641,-80.9990564451,1
12919000000,44.999095469,-80.9990540111,1
12947000000,44.999096043,-80.9990511996,1
12971000000,44.9990967321,-80.9990477588,1
12986000000,44.9990969512,-80.9990466486,1
13002000000,44.9990974338,-80.9990441741,1
13018000000,44.9990978866,-80.9990418139,1
13038000000,44.9990983571,-80.9990393195,1
13058000000,44.999098844,-80.9990366893,1
13081000000,44.9990993689,-80.9990337957,1
13099000000,44.9990997732,-80.9990315216,1
13119000000,44.9991001938,-80.9990291121,1
13139000000,44.9991006509,-80.9990264381,1
13159000000,44.9991010574,-80.999024009,1
13178000000,44.999101457,-80.9990215706,1
13198000000,44.9991018904,-80.9990188647,1
13219000000,44.9991022948,-80.9990162771,1
13239000000,44.9991026911,-80.9990136792,1
13258000000,44.9991030597,-80.9990112018,1
13279000000,44.9991034768,-80.9990083217,1
13298000000,44.9991038102,-80.999005956,1
13322000000,44.9991042434,-80.999002789,1
13339000000,44.9991045424,-80.9990005369,1
13366000000,44.9991049193,-80.9989976116,1
13378000000,44.9991052193,-80.9989952092,1
13398000000,44.9991055275,-80.9989926647,1
13413000000,44.9991058426,-80.9989899765,1
13440000000,44.9991061775,-80.9989870081,1
13459000000,44.9991064571,-80.998984435,1
13479000000,44.9991067553,-80.9989815808,1
13500000000,44.9991070288,-80.9989788526,1
13518000000,44.9991072789,-80.9989762522,1
13540000000,44.9991075437,-80.9989733686,1
13558000000,44.9991077718,-80.9989707506,1
13580000000,44.9991080217,-80.9989677087,1
13607000000,44.9991082973,-80.9989640999,1
13618000000,44.999108407,-80.9989625685,1
13638000000,44.9991086029,-80.9989596371,1
13661000000,44.9991087979,-80.9989564158,1
13678000000,44.9991089202,-80.9989541685,1
13699000000,44.9991090626,-80.9989512108,1
13722000000,44.9991091833,-80.9989482441,1
13738000000,44.9991092727,-80.9989455523,1
13758000000,44.9991093425,-80.9989428534,1
13780000000,44.9991093975,-80.9989397196,1
13801000000,44.9991094216,-80.9989368627,1
13818000000,44.9991094217,-80.9989341419,1
13846000000,44.9991093959,-80.9989311275,1
13859000000,44.9991093441,-80.9989282498,1
13878000000,44.9991092702,-80.9989255102,1
13898000000,44.9991091725,-80.9989227654,1
13918000000,44.9991090434,-80.998919871,1
13938000000,44.9991088865,-80.9989169718,1
13958000000,44.9991086912,-80.998913923,1
13978000000,44.9991084876,-80.998911161,1
13999000000,44.9991082332,-80.9989081046,1
14018000000,44.999107962,-80.9989051911,1
14040000000,44.9991076141,-80.998901838,1
14059000000,44.9991073148,-80.9988992125,1
14079000000,44.9991069733,-80.9988964404,1
14099000000,44.9991065851,-80.9988935218,1
14119000000,44.9991061462,-80.9988904571,1
14148000000,44.999105513,-80.9988863709,1
14165000000,44.9991051511,-80.9988841826,1
14178000000,44.999104773,-80.9988819952,1
14198000000,44.9991042163,-80.9988789348,1
14218000000,44.9991036573,-80.9988760219,1
14238000000,44.9991030739,-80.9988731107,1
14259000000,44.9991024637,-80.9988702018,1
14279000000,44.999101827,-80.998867296,1
14304000000,44.9991009948,-80.9988636683,1
14322000000,44.9991003371,-80.9988609144,1
14338000000,44.999099803,-80.9988587423,1
14359000000,44.9990990327,-80.998855705,1
14378000000,44.9990983134,-80.9988529609,1
14399000000,44.9990974947,-80.9988499321,1
14418000000,44.9990967329,-80.9988471956,1
14439000000,44.9990959097,-80.9988443192,1
14458000000,44.9990950229,-80.9988413031,1
14482000000,44.9990939824,-80.9988378612,1
14499000000,44.9990932734,-80.9988355694,1
14519000000,44.9990923705,-80.9988327077,1
14538000000,44.9990914966,-80.9988299918,1
14559000000,44.9990905134,-80.9988269928,1
14578000000,44.9990896092,-80.9988242812,1
14598000000,44.999088595,-80.9988212858,1
14620000000,44.9990875666,-80.9988182913,1
14638000000,44.999086625,-80.9988155822,1
14658000000,44.9990856235,-80.9988127304,1
14679000000,44.9990845613,-80.9988097351,1
14698000000,44.999083643,-80.9988071668,1
14722000000,44.9990824601,-80.9988038829,1
14741000000,44.9990814239,-80.9988010249,1
14759000000,44.9990804865,-80.9987984499,1
14779000000,44.9990794401,-80.9987955854,1
14804000000,44.99907839,-80.9987927163,1
14819000000,44.9990773376,-80.9987898417,1
14839000000,44.9990762834,-80.9987869613,1
14874000000,44.9990746476,-80.998782484,1
14878000000,44.9990741728,-80.9987811809,1
14906000000,44.9990728551,-80.9987775528,1
14919000000,44.9990720135,-80.998775224,1
14950000000,44.9990706504,-80.9987714272,1
14958000000,44.9990699717,-80.9987695225,1
14978000000,44.999068932,-80.9987665835,1
14999000000,44.9990678992,-80.998763633,1
15018000000,44.9990669253,-80.9987608187,1
15038000000,44.9990658582,-80.9987576948,1
15058000000,44.9990648523,-80.9987547062,1
15080000000,44.9990638578,-80.9987517043,1
15099000000,44.9990628279,-80.9987485371,1
15118000000,44.9990619579,-80.9987458096,1
15138000000,44.9990610056,-80.9987427639,1
15158000000,44.9990600217,-80.998739546,1
15178000000,44.9990591452,-80.9987366206,1
15199000000,44.9990581982,-80.9987333752,1
15220000000,44.9990572292,-80.9987299646,1
15239000000,44.9990564124,-80.99872701,1
15258000000,44.9990556168,-80.9987240442,1
15278000000,44.999054842,-80.9987210655,1
15298000000,44.9990540083,-80.9987177621,1
15319000000,44.9990532372,-80.9987146068,1
15342000000,44.9990524533,-80.9987112825,1
15359000000,44.9990517666,-80.9987082641,1
15386000000,44.9990510319,-80.9987049177,1
15399000000,44.9990503856,-80.9987018791,1
15419000000,44.9990496404,-80.9986986535,1
15441000000,44.999048752,-80.9986950869,1
15460000000,44.9990479852,-80.9986920007,1
15478000000,44.99904724,-80.9986888886,1
15499000000,44.9990464663,-80.998685599,1
15518000000,44.9990457485,-80.9986824567,1
15528000000,44.9990449786,-80.9986789649,1
15558000000,44.9990442896,-80.9986756216,1
15578000000,44.9990436386,-80.9986722661,1
15599000000,44.9990430003,-80.9986687338,1
15620000000,44.9990424739,-80.9986653337,1
15641000000,44.999041884,-80.9986619201,1
15661000000,44.9990413061,-80.9986583546,1
15681000000,44.9990408528,-80.9986549375,1
15699000000,44.9990404751,-80.9986518428,1
15723000000,44.9990400987,-80.9986478801,1
15741000000,44.9990398587,-80.998645104,1
15764000000,44.9990394536,-80.9986411189,1
15782000000,44.999039114,-80.9986374918,1
15799000000,44.9990389445,-80.9986345283,1
15819000000,44.9990387436,-80.9986310226,1
15838000000,44.9990385598,-80.9986275221,1
15859000000,44.9990384683,-80.9986238454,1
15880000000,44.9990384001,-80.9986203128,1
15898000000,44.999038338,-80.9986169581,1
15918000000,44.999038368,-80.9986134086,1
15949000000,44.9990383701,-80.9986098402,1
15958000000,44.9990384448,-80.9986064611,1
15978000000,44.9990385499,-80.9986027008,1
15998000000,44.9990386456,-80.9985993082,1
16018000000,44.9990387125,-80.9985955335,1
16039000000,44.9990387459,-80.9985917545,1
16061000000,44.9990387595,-80.9985883329,1
16078000000,44.9990387748,-80.9985847245,1
16099000000,44.9990388171,-80.9985811089,1
16119000000,44.9990389007,-80.9985774892,1
16139000000,44.9990390137,-80.9985736843,1
16158000000,44.9990391283,-80.9985704201,1
16178000000,44.9990392835,-80.9985667891,1
16198000000,44.9990394802,-80.9985629699,1
16218000000,44.9990396862,-80.9985595111,1
16238000000,44.9990399367,-80.9985556854,1
16258000000,44.9990401997,-80.9985520392,1
16287000000,44.9990405833,-80.9985472954,1
16298000000,44.9990407916,-80.9985449222,1
16319000000,44.9990411663,-80.9985409045,1
16339000000,44.9990415133,-80.9985374331,1
16359000000,44.9990419003,-80.9985337776,1
16380000000,44.9990423326,-80.9985299395,1
16399000000,44.9990427482,-80.9985264676,1
16420000000,44.9990432333,-80.9985226303,1
16445000000,44.999043744,-80.9985184632,1
16469000000,44.9990443539,-80.9985136187,1
16478000000,44.9990445559,-80.9985120041,1
16500000000,44.9990450447,-80.9985082545,1
16519000000,44.9990454796,-80.998504868,1
16548000000,44.9990461371,-80.9984995312,1
16559000000,44.9990463297,-80.998497755,1
16580000000,44.999046706,-80.9984938483,1
16599000000,44.9990469638,-80.9984906609,1
16618000000,44.999047213,-80.9984871266,1
16640000000,44.9990474323,-80.9984835976,1
16666000000,44.9990477469,-80.998478665,1
16679000000,44.9990478881,-80.9984763779,1
16699000000,44.9990480971,-80.9984728624,1
16718000000,44.9990482999,-80.9984695259,1
16743000000,44.9990485628,-80.9984653155,1
16759000000,44.9990487491,-80.9984623356,1
16778000000,44.9990489455,-80.9984591824,1
16799000000,44.9990491744,-80.9984555058,1
16819000000,44.9990493945,-80.9984520086,1
16838000000,44.9990496137,-80.9984487126,1
16858000000,44.9990498583,-80.9984450712,1
16879000000,44.9990500841,-80.9984414641,1
16900000000,44.9990503264,-80.9984381952,1
16919000000,44.9990506745,-80.9984347355,1
16939000000,44.999051037,-80.9984311101,1
16958000000,44.9990513483,-80.9984280023,1
16979000000,44.9990517115,-80.9984243745,1
16998000000,44.9990520575,-80.9984209176,1
17029000000,44.9990525311,-80.9984162506,1
17039000000,44.9990527608,-80.9984140144,1
17066000000,44.9990531625,-80.9984093624,1
17080000000,44.9990533815,-80.9984069221,1
17099000000,44.9990536679,-80.9984034247,1
17118000000,44.9990539061,-80.9984001019,1
17144000000,44.9990542633,-80.9983955421,1
17158000000,44.9990544571,-80.998393263,1
17179000000,44.9990547882,-80.9983895857,1
17199000000,44.9990551403,-80.998385914,1
17219000000,44.9990554771,-80.9983825964,1
17239000000,44.9990557358,-80.998379026,1
17259000000,44.9990559182,-80.9983753465,1
17278000000,44.999056139,-80.9983716889,1
17298000000,44.9990563849,-80.9983680443,1
17323000000,44.9990567323,-80.9983635077,1
17339000000,44.9990569661,-80.9983607984,1
17358000000,44.999057314,-80.9983572016,1
17380000000,44.9990577354,-80.9983533549,1
17400000000,44.9990580943,-80.9983494778,1
17415000000,44.999058435,-80.9983463714,1
17440000000,44.9990589243,-80.9983421836,1
17459000000,44.9990593802,-80.9983389033,1
17480000000,44.9990598725,-80.9983352403,1
17498000000,44.9990603527,-80.9983317672,1
17520000000,44.9990610299,-80.9983275883,1
17539000000,44.9990615702,-80.9983241102,1
17557000000,44.9990621566,-80.9983206542,1
17602000000,44.9990631117,-80.9983153815,1
17602000000,44.9990636258,-80.99831266,1
17618000000,44.9990641984,-80.9983097552,1
17643000000,44.9990650083,-80.9983053912,1
17659000000,44.9990655271,-80.9983024702,1
17679000000,44.9990661392,-80.9982988082,1
17706000000,44.9990669518,-80.9982936582,1
17719000000,44.9990672772,-80.9982914421,1
17739000000,44.9990677904,-80.9982877363,1
17761000000,44.9990683302,-80.9982834544,1
17778000000,44.999068676,-80.9982804631,1
17817000000,44.9990693316,-80.9982752424,1
17824000000,44.9990697841,-80.9982718918,1
17840000000,44.9990702396,-80.9982687348,1
17858000000,44.9990707486,-80.9982653962,1
17878000000,44.999071317,-80.9982618788,1
17899000000,44.999071979,-80.998257995,1
17918000000,44.9990725923,-80.9982542888,1
17939000000,44.9990732029,-80.9982503858,1
17960000000,44.9990736797,-80.9982470259,1
17978000000,44.9990741769,-80.9982432807,1
17998000000,44.9990746548,-80.9982393339,1
18024000000,44.9990751898,-80.9982348185,1
18038000000,44.9990755745,-80.9982318146,1
18058000000,44.9990760556,-80.9982282512,1
18079000000,44.9990765706,-80.9982243055,1
18098000000,44.9990770419,-80.998220541,1
18119000000,44.9990775091,-80.9982167734,1
18139000000,44.9990779632,-80.9982130006,1
18154000000,44.9990784017,-80.9982092222,1
18179000000,44.9990788302,-80.9982054399,1
18198000000,44.9990792259,-80.9982018426,1
18219000000,44.9990796477,-80.9981978615,1
18243000000,44.9990800929,-80.9981934959,1
18254000000,44.9990804837,-80.9981895049,1
18286000000,44.9990809099,-80.998184938,1
18301000000,44.9990811657,-80.9981820807,1
18319000000,44.9990814616,-80.9981786491,1
18338000000,44.9990817452,-80.9981752142,1
18359000000,44.9990820743,-80.9981710115,1
18379000000,44.9990823432,-80.9981673781,1
18398000000,44.9990825974,-80.9981637412,1
18419000000,44.9990828611,-80.9981597173,1
18439000000,44.9990831064,-80.998155689,1
18458000000,44.9990833018,-80.9981522328,1
18478000000,44.9990835124,-80.9981481968,1
18499000000,44.9990836954,-80.9981443493,1
18519000000,44.9990838609,-80.9981404985,1
18538000000,44.9990840017,-80.9981368391,1
18561000000,44.999084157,-80.998132219,1
18579000000,44.999084252,-80.9981289485,1
18598000000,44.9990843428,-80.9981252953,1
18621000000,44.9990844312,-80.9981208761,1
18642000000,44.9990844917,-80.998116844,1
18659000000,44.9990845274,-80.9981135817,1
18680000000,44.9990845527,-80.9981095548,1
18702000000,44.9990845587,-80.9981053386,1
18718000000,44.9990845506,-80.9981022746,1
18738000000,44.9990845247,-80.9980984467,1
18758000000,44.9990844831,-80.9980946215,1
18779000000,44.9990844215,-80.9980906081,1
18801000000,44.9990843423,-80.9980865977,1
18819000000,44.9990842553,-80.998082972,1
18839000000,44.9990841483,-80.9980791581,1
18864000000,44.9990840127,-80.9980749661,1
18886000000,44.9990838516,-80.9980705872,1
18907000000,44.9990837037,-80.9980669728,1
18921000000,44.9990835428,-80.998063361,1
18938000000,44.999083388,-80.9980601317,1
18960000000,44.9990831828,-80.9980559556,1
18979000000,44.9990829842,-80.9980525414,1
18998000000,44.9990827738,-80.99804894,1
19023000000,44.9990825281,-80.9980449625,1
19045000000,44.9990821928,-80.9980398532,1
19058000000,44.9990820237,-80.998037395,1
19080000000,44.9990817406,-80.9980334266,1
19098000000,44.9990814882,-80.9980300277,1
19125000000,44.9990811829,-80.998026065,1
19140000000,44.9990808665,-80.9980221055,1
19158000000,44.9990805868,-80.9980187139,1
19179000000,44.9990802511,-80.9980147598,1
19199000000,44.9990799226,-80.9980109966,1
19216000000,44.999079449,-80.9980057323,1
19245000000,44.9990791366,-80.9980023507,1
19259000000,44.9990788896,-80.9979997218,1
19278000000,44.9990785307,-80.9979959682,1
19303000000,44.9990780922,-80.9979914667,1
19318000000,44.9990778141,-80.9979886548,1
19336000000,44.999077439,-80.9979849071,1
19358000000,44.9990770594,-80.9979811613,1
19366000000,44.9990766565,-80.9979772299,1
19399000000,44.9990762496,-80.9979733004,1
19421000000,44.9990758391,-80.9979693725,1
19438000000,44.9990754846,-80.9979660069,1
19458000000,44.9990750882,-80.9979622687,1
19478000000,44.9990747095,-80.9979587185,1
19498000000,44.9990742893,-80.9979547957,1
19519000000,44.9990738681,-80.9979508739,1
19538000000,44.9990734864,-80.9979473264,1
19562000000,44.9990730047,-80.9979428461,1
19586000000,44.9990725634,-80.9979387398,1
19599000000,44.9990722827,-80.997936127,1
19622000000,44.9990718831,-80.9979323948,1
19638000000,44.9990714854,-80.9979286627,1
19659000000,44.99907109,-80.9979249306,1
19681000000,44.999070639,-80.9979206386,1
19700000000,44.9990702892,-80.9979172795,1
19720000000,44.9990699235,-80.9979137334,1
19738000000,44.9990695617,-80.9979101869,1
19762000000,44.9990691112,-80.9979057064,1
19786000000,44.9990686684,-80.997901225,1
19799000000,44.9990684322,-80.9978987971,1
19818000000,44.9990680743,-80.9978950612,1
19839000000,44.9990677062,-80.9978911373,1
19858000000,44.9990673802,-80.9978875862,1
19879000000,44.9990670448,-80.997883847,1
19898000000,44.9990667335,-80.9978802937,1
19918000000,44.9990663981,-80.9978763652,1
19938000000,44.9990661029,-80.9978728096,1
19958000000,44.999065786,-80.9978688785,1
19978000000,44.9990654939,-80.9978651333,1
20000000000,41.3064401911,-83.4208621507,-1
20001000000,44.9990651837,-80.997861012,1
20019000000,44.9990649391,-80.9978576388,1
20039000000,44.999064677,-80.9978538896,1
20058000000,44.9990644378,-80.9978503266,1
20080000000,44.9990641735,-80.9978461996,1
20104000000,44.999063945,-80.9978424463,1
20118000000,44.9990637386,-80.9978388794,1
20139000000,44.9990635328,-80.9978351236,1
20164000000,44.9990632925,-80.9978304269,1
20178000000,44.9990631662,-80.997827796,1
20199000000,44.9990629881,-80.9978238485,1
20218000000,44.9990628388,-80.9978202758,1
20238000000,44.9990626941,-80.9978165141,1
20258000000,44.9990625622,-80.9978127513,1
20279000000,44.9990624377,-80.9978087993,1
20298000000,44.9990623375,-80.9978052228,1
20318000000,44.9990622407,-80.9978012689,1
20338000000,44.9990621618,-80.9977975024,1
20361000000,44.9990620903,-80.9977933585,1
20378000000,44.9990620458,-80.9977901559,1
20398000000,44.9990620041,-80.9977861991,1
20419000000,44.9990619778,-80.9977824303,1
20440000000,44.999061964,-80.9977782841,1
20458000000,44.9990619641,-80.9977750801,1
20478000000,44.9990619777,-80.9977711218,1
20505000000,44.9990620142,-80.9977662207,1
20519000000,44.9990620426,-80.9977635815,1
20538000000,44.999062091,-80.9977599998,1
20558000000,44.9990621542,-80.9977562296,1
20579000000,44.9990622381,-80.9977520826,1
20598000000,44.9990623227,-80.9977485012,1
20619000000,44.9990624234,-80.9977447315,1
20640000000,44.9990625422,-80.9977407737,1
20665000000,44.9990627001,-80.9977360623,1
20678000000,44.9990627963,-80.9977334243,1
20701000000,44.9990629356,-80.9977298444,1
20718000000,44.9990630928,-80.9977260765,1
20738000000,44.9990632609,-80.9977223091,1
20749000000,44.9990634393,-80.9977185422,1
20779000000,44.9990636378,-80.9977145876,1
20799000000,44.9990638469,-80.9977106335,1
20818000000,44.9990640344,-80.9977072449,1
20839000000,44.9990642624,-80.997703292,1
20866000000,44.9990645696,-80.9976982107,1
20879000000,44.9990647233,-80.9976957646,1
20898000000,44.9990649668,-80.9976920018,1
20919000000,44.9990652183,-80.9976882396,1
20939000000,44.9990654771,-80.9976844779,1
20958000000,44.9990657292,-80.9976809049,1
20978000000,44.9990660154,-80.9976769562,1
20999000000,44.9990662937,-80.997673196,1
21019000000,44.9990665778,-80.9976694362,1
21038000000,44.9990668531,-80.9976658648,1
21059000000,44.9990671627,-80.9976619179,1
21084000000,44.9990675382,-80.9976572196,1
21103000000,44.9990677665,-80.9976544008,1
21118000000,44.9990680741,-80.9976506425,1
21138000000,44.9990683694,-80.9976470723,1
21164000000,44.9990687938,-80.9976419989,1
21178000000,44.9990690157,-80.9976393683,1
21192000000,44.9990693987,-80.9976348587,1
21218000000,44.9990696398,-80.9976320402,1
21238000000,44.9990699791,-80.9976280942,1
21258000000,44.999070287,-80.9976245238,1
21292000000,44.9990706445,-80.9976203895,1
21301000000,44.9990709535,-80.9976168185,1
21318000000,44.9990712787,-80.9976130593,1
21342000000,44.9990716524,-80.9976087357,1
21362000000,44.9990719281,-80.9976055396,1
21382000000,44.9990722997,-80.9976012148,1
21399000000,44.9990725732,-80.9975980177,1
21418000000,44.9990728931,-80.9975942558,1
21439000000,44.9990731946,-80.9975906812,1
21458000000,44.9990735093,-80.9975869178,1
21479000000,44.9990738364,-80.9975829653,1
21498000000,44.9990741443,-80.9975792002,1
21519000000,44.9990744483,-80.9975754341,1
21540000000,44.9990747775,-80.9975712902,1
21567000000,44.9990751592,-80.9975663912,1
21581000000,44.9990753467,-80.997563941,1
21598000000,44.9990756024,-80.9975605477,1
21620000000,44.9990758946,-80.9975565876,1
21639000000,44.9990761665,-80.9975528149,1
21659000000,44.999076432,-80.9975490409,1
21679000000,44.9990767034,-80.997545077,1
21698000000,44.9990769424,-80.9975414894,1
21718000000,44.999077187,-80.9975377118,1
21747000000,44.9990775284,-80.9975322322,1
21763000000,44.9990776985,-80.9975293969,1
21779000000,44.9990778749,-80.9975263719,1
21799000000,44.9990780879,-80.9975225894,1
21819000000,44.9990782923,-80.9975188058,1
21829000000,44.999078488,-80.9975150211,1
21859000000,44.9990786657,-80.9975114245,1
21878000000,44.9990788527,-80.9975074481,1
21898000000,44.9990790213,-80.99750366,1
21919000000,44.9990791806,-80.9974998708,1
21949000000,44.9990793519,-80.9974955121,1
21959000000,44.9990794701,-80.9974922895,1
21979000000,44.9990795998,-80.9974884975,1
21998000000,44.9990797137,-80.9974848942,1
22018000000,44.9990798236,-80.9974811004,1
22038000000,44.999079923,-80.9974773058,1
22062000000,44.9990800325,-80.9974725615,1
22078000000,44.9990800907,-80.9974697144,1
22099000000,44.9990801627,-80.9974657279,1
22118000000,44.9990802204,-80.9974619306,1
22139000000,44.9990802678,-80.9974581328,1
22158000000,44.9990803033,-80.9974545244,1
22178000000,44.9990803308,-80.9974507257,1
22200000000,44.9990803494,-80.9974465468,1
22231000000,44.9990803557,-80.9974429374,1
22239000000,44.9990803527,-80.9974391378,1
22261000000,44.9990803398,-80.9974353381,1
22279000000,44.9990803159,-80.9974313482,1
22304000000,44.9990802738,-80.9974265982,1
22319000000,44.9990802439,-80.9974239382,1
22342000000,44.9990801819,-80.9974193782,1
22358000000,44.9990801334,-80.9974163382,1
22379000000,44.9990800648,-80.9974125383,1
22398000000,44.9990799918,-80.9974089284,1
22419000000,44.9990798984,-80.9974047487,1
22440000000,44.9990798008,-80.9974007591,1
22458000000,44.9990797162,-80.9973975296,1
22478000000,44.9990796048,-80.9973935404,1
22505000000,44.999079486,-80.9973895514,1
22518000000,44.9990793722,-80.9973859424,1
22537000000,44.9990792532,-80.9973823336,1
22558000000,44.9990791163,-80.9973783451,1
22581000000,44.9990789739,-80.9973743568,1
22598000000,44.9990788407,-80.9973707485,1
22618000000,44.9990787038,-80.9973671404,1
22639000000,44.9990785484,-80.9973631525,1
22659000000,44.9990783965,-80.9973593548,1
22679000000,44.9990782414,-80.9973555571,1
22698000000,44.9990780837,-80.9973517596,1
22718000000,44.9990779321,-80.9973481519,1
22738000000,44.9990777709,-80.9973443544,1
22759000000,44.9990776003,-80.997340367,1
22779000000,44.9990774371,-80.9973365694,1
22798000000,44.9990772816,-80.9973329617,1
22820000000,44.9990771179,-80.997329164,1
22838000000,44.9990769464,-80.9973251763,1
22858000000,44.9990767842,-80.9973213784,1
22880000000,44.999076624,-80.9973175802,1
22899000000,44.9990764659,-80.9973137817,1
22915000000,44.9990763184,-80.997310173,1
22938000000,44.9990761592,-80.997306184,1
22958000000,44.9990760191,-80.9973025748,1
22989000000,44.9990758687,-80.9972985851,1
22999000000,44.9990757316,-80.9972947851,1
23019000000,44.9990755936,-80.9972907945,1
23038000000,44.9990754745,-80.9972871836,1
23064000000,44.9990753389,-80.9972828121,1
23079000000,44.9990752398,-80.9972793904,1
23098000000,44.9990751476,-80.9972759684,1
23118000000,44.9990750517,-80.997272166,1
23145000000,44.9990749584,-80.9972679829,1
23158000000,44.9990748916,-80.9972645597,1
23178000000,44.9990748206,-80.9972603757,1
23198000000,44.9990747697,-80.997256762,1
23218000000,44.9990747269,-80.9972529578,1
23243000000,44.9990746953,-80.9972491533,1
23258000000,44.999074676,-80.997245539,1
23278000000,44.999074667,-80.9972415443,1
23300000000,44.9990746722,-80.9972375495,1
23319000000,44.9990746892,-80.9972339355,1
23338000000,44.99907472,-80.9972301312,1
23362000000,44.9990747671,-80.9972261373,1
23388000000,44.9990748545,-80.9972208128,1
23398000000,44.9990748926,-80.9972189114,1
23421000000,44.9990749945,-80.9972145391,1
23439000000,44.9990750941,-80.997210928,1
23458000000,44.9990752018,-80.9972075078,1
23480000000,44.9990753512,-80.9972033288,1
23498000000,44.9990754963,-80.9971997208,1
23519000000,44.9990756654,-80.9971959245,1
23538000000,44.9990758503,-80.9971921295,1
23558000000,44.999076051,-80.9971883363,1
23584000000,44.9990763311,-80.9971835981,1
23600000000,44.9990765258,-80.9971805675,1
23619000000,44.9990767703,-80.9971769705,1
23638000000,44.9990770451,-80.9971731866,1
23659000000,44.9990773543,-80.9971692166,1
23679000000,44.9990776521,-80.9971656276,1
23698000000,44.9990779666,-80.9971620414,1
23722000000,44.9990784063,-80.9971573274,1
23738000000,44.9990786846,-80.9971545017,1
23757000000,44.9990790724,-80.9971507374,1
23778000000,44.9990795002,-80.9971467892,1
23789000000,44.9990799485,-80.9971428455,1
23818000000,44.9990803511,-80.9971394692,1
23840000000,44.9990808872,-80.9971351605,1
23859000000,44.9990813247,-80.9971317932,1
23878000000,44.9990818296,-80.9971280563,1
23899000000,44.9990823536,-80.9971243245,1
23918000000,44.9990828971,-80.9971205983,1
23941000000,44.999083546,-80.9971163202,1
23958000000,44.9990840125,-80.9971133486,1
23975000000,44.9990846739,-80.997109269,1
24004000000,44.9990854215,-80.9971048268,1
24018000000,44.9990858705,-80.99710224,1
24047000000,44.99908683,-80.9970968916,1
24058000000,44.9990872042,-80.9970948666,1
24078000000,44.9990879344,-80.9970910063,1
24098000000,44.9990886125,-80.9970875202,1
24118000000,44.9990893443,-80.9970838576,1
24141000000,44.9990902083,-80.9970796545,1
24160000000,44.99909094,-80.9970761898,1
24178000000,44.9990916879,-80.9970727319,1
24200000000,44.9990925327,-80.9970689178,1
24219000000,44.9990933123,-80.9970654733,1
24238000000,44.9990941515,-80.9970618559,1
24258000000,44.9990949633,-80.9970584263,1
24278000000,44.9990958796,-80.9970546444,1
24298000000,44.9990967235,-80.9970512299,1
24320000000,44.9990976733,-80.9970474643,1
24338000000,44.9990985941,-80.9970438861,1
24363000000,44.9990997199,-80.997039603,1
24378000000,44.9991004826,-80.9970367536,1
24399000000,44.9991014949,-80.9970330202,1
24418000000,44.9991024264,-80.9970296502,1
24442000000,44.9991035235,-80.9970257587,1
24458000000,44.9991044317,-80.9970225805,1
24478000000,44.999105403,-80.9970192327,1
24508000000,44.9991069605,-80.9970139607,1
24518000000,44.9991075389,-80.9970120318,1
24546000000,44.9991088671,-80.9970076561,1
24558000000,44.9991096729,-80.997005036,1
24584000000,44.9991110851,-80.9970005038,1
24598000000,44.9991118534,-80.9969980682,1
24623000000,44.9991129602,-80.9969945946,1
24644000000,44.9991143587,-80.996990262,1
24659000000,44.9991152054,-80.9969876672,1
24678000000,44.9991162855,-80.9969843854,1
24698000000,44.9991174317,-80.9969809369,1
24723000000,44.999118877,-80.9969766345,1
24738000000,44.999119809,-80.9969738855,1
24760000000,44.9991210401,-80.9969702829,1
24779000000,44.9991221614,-80.9969670284,1
24798000000,44.9991232896,-80.9969637786,1
24818000000,44.9991244842,-80.9969603626,1
24838000000,44.9991257458,-80.9969567809,1
24859000000,44.9991269542,-80.9969533745,1
24878000000,44.9991281079,-80.9969501424,1
24898000000,44.9991293891,-80.9969465745,1
24929000000,44.9991305527,-80.9969433495,1
24938000000,44.9991318454,-80.9969397897,1
24963000000,44.9991333289,-80.9969357259,1
24979000000,44.9991343217,-80.9969330195,1
24998000000,44.9991355044,-80.9969298084,1
25019000000,44.9991368785,-80.9969260936,1
25041000000,44.9991381314,-80.9969227192,1
25060000000,44.9991394505,-80.9969191789,1
25079000000,44.9991406465,-80.9969159776,1
25099000000,44.999141908,-80.9969126097,1
25130000000,44.9991433622,-80.9969087393,1
25140000000,44.9991444387,-80.9969058798,1
25158000000,44.9991456434,-80.9969026851,1
25181000000,44.9991468493,-80.9968994913,1
25198000000,44.9991481199,-80.9968961304,1
25218000000,44.9991493914,-80.9968927703,1
25238000000,44.9991506636,-80.9968894107,1
25258000000,44.999152,-80.9968858836,1
25279000000,44.9991532729,-80.9968825248,1
25302000000,44.9991545456,-80.9968791659,1
25318000000,44.9991558183,-80.996875807,1
25338000000,44.9991570275,-80.9968726161,1
25359000000,44.9991583632,-80.9968690888,1
25379000000,44.9991596347,-80.9968657291,1
25401000000,44.9991610959,-80.9968618647,1
25419000000,44.9991621752,-80.996859008,1
25439000000,44.999163444,-80.9968556464,1
25460000000,44.9991648385,-80.9968519478,1
25479000000,44.9991659782,-80.9968489209,1
25506000000,44.9991676858,-80.9968443791,1
25518000000,44.9991685071,-80.9968421916,1
25538000000,44.9991697061,-80.9968389936,1
25558000000,44.9991709667,-80.9968356263,1
25583000000,44.9991724771,-80.9968315838,1
25598000000,44.9991735455,-80.9968287193,1
25623000000,44.9991750515,-80.9968246737,1
25638000000,44.9991759914,-80.9968221442,1
25658000000,44.9991772429,-80.9968187703,1
25676000000,44.999178555,-80.9968152263,1
25698000000,44.9991797404,-80.9968120187,1
25718000000,44.9991810484,-80.9968084718,1
25743000000,44.9991822925,-80.9968050927,1
25759000000,44.9991835349,-80.9968017124,1
25778000000,44.9991847135,-80.9967985,1
25799000000,44.999186015,-80.9967949486,1
25818000000,44.999187191,-80.9967917342,1
25839000000,44.9991884893,-80.9967881805,1
25859000000,44.9991897247,-80.9967847953,1
25879000000,44.9991909591,-80.9967814093,1
25898000000,44.9991921308,-80.9967781921,1
25919000000,44.9991934251,-80.9967746356,1
25933000000,44.9991946571,-80.996771248,1
25973000000,44.9991967501,-80.9967654882,1
25978000000,44.9991971193,-80.9967644717,1
25998000000,44.9991982889,-80.9967612531,1
26019000000,44.9991995817,-80.9967576957,1
26038000000,44.9992008128,-80.9967543077,1
26063000000,44.9992022289,-80.9967504117,1
26079000000,44.9992032761,-80.9967475325,1
26099000000,44.9992045087,-80.9967441457,1
26119000000,44.9992057417,-80.9967407592,1
26138000000,44.9992069764,-80.996737374,1
26159000000,44.9992082122,-80.9967339896,1
26178000000,44.9992094492,-80.9967306062,1
26199000000,44.9992107502,-80.9967270552,1
26219000000,44.9992119294,-80.9967238439,1
26238000000,44.9992131724,-80.9967204649,1
26259000000,44.9992144177,-80.9967170876,1
26279000000,44.9992157279,-80.9967135433,1
26304000000,44.9992172917,-80.9967093271,1
26319000000,44.9992181696,-80.9967069677,1
26349000000,44.9992197415,-80.9967027576,1
26359000000,44.9992206875,-80.9967002336,1
26379000000,44.9992219519,-80.9966968707,1
26398000000,44.9992232208,-80.9966935112,1
26420000000,44.999224558,-80.9966899875,1
26439000000,44.9992257724,-80.9966868029,1
26458000000,44.9992269914,-80.9966836217,1
26478000000,44.9992283444,-80.9966801102,1
26502000000,44.9992298984,-80.996676103,1
26519000000,44.9992309392,-80.9966734352,1
26543000000,44.9992325078,-80.9966694394,1
26559000000,44.9992336244,-80.9966666135,1
26586000000,44.9992354077,-80.996662133,1
26599000000,44.9992362042,-80.9966601448,1
26642000000,44.999239147,-80.9966528729,1
26642000000,44.999239147,-80.9966528729,1
26658000000,44.9992401587,-80.9966504007,1
26678000000,44.9992415146,-80.9966471102,1
26699000000,44.9992429471,-80.9966436626,1
26718000000,44.9992443201,-80.9966403864,1
26738000000,44.9992456325,-80.9966372808,1
26758000000,44.9992470224,-80.9966340189,1
26779000000,44.9992485616,-80.9966304395,1
26808000000,44.9992498997,-80.996627356,1
26825000000,44.9992514598,-80.9966237949,1
26839000000,44.9992528167,-80.9966207278,1
26858000000,44.9992541825,-80.9966176687,1
26879000000,44.9992557026,-80.996614297,1
26904000000,44.9992571609,-80.9966110954,1
26918000000,44.9992585559,-80.9966080627,1
26941000000,44.9992602577,-80.9966044037,1
26958000000,44.9992615249,-80.996601708,1
26978000000,44.9992629507,-80.9965987041,1
26998000000,44.9992644625,-80.9965955526,1
27018000000,44.9992659832,-80.9965924097,1
27038000000,44.9992675945,-80.996589124,1
27059000000,44.9992691426,-80.9965860076,1
27078000000,44.9992706226,-80.9965830565,1
27098000000,44.999272192,-80.9965799616,1
27120000000,44.9992739332,-80.9965765723,1
27154000000,44.9992767334,-80.9965712113,1
27158000000,44.9992769751,-80.9965707536,1
27179000000,44.999278675,-80.9965675577,1
27198000000,44.9992803065,-80.9965645273,1
27218000000,44.9992818677,-80.9965616606,1
27239000000,44.9992836063,-80.9965585063,1
27259000000,44.9992852746,-80.9965555161,1
27278000000,44.999286871,-80.9965526882,1
27299000000,44.9992887335,-80.9965494295,1
27319000000,44.999290354,-80.9965466289,1
27339000000,44.9992920719,-80.9965436948,1
27361000000,44.9992939758,-80.9965404839,1
27378000000,44.9992955446,-80.9965378699,1
27398000000,44.9992972993,-80.9965349792,1
27418000000,44.9992990661,-80.9965321033,1
27439000000,44.9993008421,-80.9965292386,1
27464000000,44.9993031726,-80.9965255414,1
27479000000,44.9993044357,-80.996523561,1
27498000000,44.9993062497,-80.9965207439,1
27519000000,44.9993081674,-80.9965178025,1
27538000000,44.9993099135,-80.9965151555,1
27559000000,44.9993117626,-80.9965123838,1
27578000000,44.9993135298,-80.9965097646,1
27599000000,44.9993155887,-80.9965067489,1
27619000000,44.9993173777,-80.996504159,1
27638000000,44.9993191767,-80.9965015831,1
27659000000,44.9993211767,-80.9964987519,1
27679000000,44.9993230924,-80.9964960707,1
27698000000,44.9993249221,-80.9964935375,1
27718000000,44.9993268583,-80.9964908855,1
27739000000,44.9993289022,-80.9964881167,1
27759000000,44.9993308591,-80.9964854948,1
27779000000,44.9993328259,-80.9964828876,1
27800000000,44.9993349015,-80.9964801657,1
27818000000,44.9993366889,-80.996477845,1
27839000000,44.9993387838,-80.9964751523,1
27858000000,44.9993406879,-80.9964727296,1
27885000000,44.9993432061,-80.9964695616,1
27900000000,44.9993449265,-80.99646742,1
27921000000,44.9993470605,-80.9964647884,1
27939000000,44.999349101,-80.9964622951,1
27958000000,44.9993509442,-80.9964600622,1
27985000000,44.9993532067,-80.9964573487,1
27998000000,44.9993549618,-80.9964552632,1
28019000000,44.9993571373,-80.9964526993,1
28039000000,44.9993592169,-80.9964502703,1
28059000000,44.9993613039,-80.9964478539,1
28081000000,44.9993636067,-80.9964452082,1
28099000000,44.9993654976,-80.9964430552,1
28122000000,44.9993677108,-80.9964405559,1
28139000000,44.9993697193,-80.9964383053,1
28158000000,44.9993718401,-80.9964359477,1
28179000000,44.9993739671,-80.9964336012,1
28198000000,44.9993761002,-80.9964312657,1
28218000000,44.9993781322,-80.9964290571,1
28238000000,44.9993803843,-80.996426627,1
28259000000,44.9993826424,-80.9964242083,1
28278000000,44.9993846907,-80.9964220294,1
28299000000,44.9993868512,-80.9964197439,1
28319000000,44.9993890172,-80.996417469,1
28339000000,44.999391297,-80.9964150906,1
28367000000,44.9993940175,-80.9964122715,1
28378000000,44.9993954351,-80.9964108111,1
28398000000,44.9993977288,-80.9964084593,1
28418000000,44.9993999175,-80.9964062275,1
28439000000,44.9994021101,-80.9964040033,1
28465000000,44.999404966,-80.9964011227,1
28478000000,44.9994065063,-80.9963995765,1
28498000000,44.9994085994,-80.9963974838,1
28528000000,44.9994119106,-80.9963941914,1
28538000000,44.9994131265,-80.9963929877,1
28559000000,44.9994153396,-80.9963908041,1
28580000000,44.9994176665,-80.9963885176,1
28607000000,44.9994207738,-80.9963854787,1
28620000000,44.9994221071,-80.9963841795,1
28639000000,44.99942422,-80.9963821263,1
28668000000,44.9994264465,-80.99637997,1
28674000000,44.9994286755,-80.9963778187,1
28699000000,44.9994309067,-80.9963756721,1
28719000000,44.9994331399,-80.9963735296,1
28739000000,44.9994353752,-80.9963713916,1
28759000000,44.9994377241,-80.9963691504,1
28781000000,44.9994400751,-80.9963669135,1
28799000000,44.9994420916,-80.9963649992,1
28819000000,44.9994443337,-80.9963628752,1
28838000000,44.9994464651,-80.9963608605,1
28862000000,44.9994492715,-80.9963582137,1
28878000000,44.9994509564,-80.9963566277,1
28900000000,44.9994535412,-80.996354199,1
28919000000,44.9994555652,-80.9963523006,1
28940000000,44.9994580403,-80.9963499831,1
28964000000,44.9994600663,-80.9963480892,1
28978000000,44.9994622056,-80.9963460912,1
28999000000,44.9994646838,-80.9963437805,1
29018000000,44.9994667124,-80.996341892,1
29038000000,44.9994689672,-80.9963397954,1
29059000000,44.9994714485,-80.9963374916,1
29085000000,44.9994742696,-80.9963348766,1
29098000000,44.9994757372,-80.996333518,1
29119000000,44.9994782215,-80.9963312209,1
29140000000,44.999480368,-80.9963292388,1
29159000000,44.9994826283,-80.9963271544,1
29179000000,44.9994850026,-80.9963249678,1
29198000000,44.9994870385,-80.9963230954,1
29220000000,44.9994896409,-80.9963207052,1
29239000000,44.9994917917,-80.9963187326,1
