rosbagTimestamp,latitude,longitude,label
1778000000,44.9990998054,-80.9994391563,1
1798000000,44.9990998052,-80.9994391659,1
1818000000,44.9990998052,-80.9994391859,1
1838000000,44.999099805,-80.9994392033,1
1860000000,44.9990998044,-80.9994391895,1
1878000000,44.9990998047,-80.9994391869,1
1898000000,44.9990998041,-80.9994391828,1
1919000000,44.9990998041,-80.9994391771,1
1938000000,44.999099804,-80.9994391734,1
1958000000,44.9990998037,-80.9994391696,1
1978000000,44.9990998031,-80.999439165,1
1998000000,44.9990998025,-80.9994391609,1
2018000000,44.9990998027,-80.9994391566,1
2040000000,44.9990998022,-80.999439152,1
2059000000,44.9990998017,-80.9994391483,1
2079000000,44.9990998015,-80.9994391436,1
2102000000,44.9990998014,-80.9994391391,1
2119000000,44.9990998013,-80.9994391355,1
2132000000,49.1049310764,-89.4909951105,-1
2138000000,44.9990998013,-80.9994391318,1
2161000000,44.9990998012,-80.9994391276,1
2172000000,44.9990998012,-80.999439124,1
2199000000,44.9990998012,-80.9994391206,1
2219000000,44.9990998011,-80.999439117,1
2240000000,44.999099801,-80.9994391133,1
2258000000,44.999099801,-80.99943911,1
2278000000,44.999099801,-80.9994391066,1
2302000000,44.9990998009,-80.9994391027,1
2318000000,44.9990998009,-80.9994391,1
2338000000,44.9990998009,-80.9994390966,1
2360000000,44.9990998009,-80.999439093,1
2378000000,44.9990998008,-80.99943909,1
2399000000,44.9990998008,-80.9994390868,1
2418000000,44.9990998007,-80.9994390836,1
2440000000,44.9990998007,-80.9994390803,1
2458000000,44.9990998007,-80.9994390773,1
2480000000,44.9990998006,-80.999439074,1
2503000000,44.9990998005,-80.9994390702,1
2518000000,44.9990998005,-80.9994390681,1
2538000000,44.9990998005,-80.9994390648,1
2558000000,44.9990998005,-80.9994390617,1
2579000000,44.9990998004,-80.9994390586,1
2599000000,44.9990998004,-80.9994390555,1
2618000000,44.9990998004,-80.9994390525,1
2639000000,44.9990998003,-80.9994390492,1
2659000000,44.9990998003,-80.9994390463,1
2679000000,44.9990998002,-80.9994390433,1
2699000000,44.9990998002,-80.9994390401,1
2718000000,44.9990998002,-80.9994390372,1
2738000000,44.9990998001,-80.9994390341,1
2758000000,44.9990998001,-80.9994390311,1
2778000000,44.9990998,-80.9994390281,1
2799000000,44.9990998,-80.999439025,1
2818000000,44.9990998,-80.999439022,1
2845000000,44.9990997999,-80.999439018,1
2859000000,44.9990997999,-80.9994390159,1
2879000000,44.9990997998,-80.9994390129,1
2899000000,44.9990997998,-80.9994390099,1
2918000000,44.9990997997,-80.999439007,1
2938000000,44.9990997997,-80.9994390038,1
2959000000,44.9990997997,-80.9994390008,1
2978000000,44.9990997996,-80.9994389978,1
2999000000,44.9990997996,-80.9994389948,1
3019000000,44.9990997996,-80.9994389917,1
3038000000,44.9990997995,-80.9994389887,1
3059000000,44.9990997995,-80.9994389857,1
3078000000,44.9990997994,-80.9994389827,1
3098000000,44.9990997994,-80.9994389797,1
3119000000,44.9990997994,-80.9994389766,1
3139000000,44.9990997993,-80.9994389736,1
3158000000,44.9990997992,-80.9994389707,1
3181000000,44.9990997992,-80.9994389674,1
3198000000,44.9990997992,-80.9994389646,1
3218000000,44.9990997992,-80.9994389616,1
3238000000,44.9990997991,-80.9994389587,1
3258000000,44.9990997991,-80.9994389555,1
3279000000,44.999099799,-80.9994389525,1
3298000000,44.999099799,-80.9994389495,1
3319000000,44.9990997989,-80.9994389465,1
3338000000,44.9990997989,-80.9994389435,1
3358000000,44.9990997988,-80.9994389406,1
3383000000,44.9990997988,-80.9994389373,1
3400000000,44.9990997987,-80.9994389342,1
3418000000,44.9990997987,-80.9994389314,1
3439000000,44.9990997987,-80.9994389284,1
3458000000,44.9990997987,-80.9994389254,1
3478000000,44.9990997986,-80.9994389223,1
3504000000,44.9990997986,-80.9994389187,1
3518000000,44.9990997985,-80.9994389163,1
3538000000,44.9990997985,-80.9994389134,1
3558000000,44.9990997984,-80.9994389103,1
3581000000,44.9990997984,-80.999438907,1
3598000000,44.9990997984,-80.9994389043,1
3619000000,44.9990997983,-80.9994389012,1
3638000000,44.9990997982,-80.9994388984,1
3658000000,44.9990997982,-80.9994388953,1
3678000000,44.9990997982,-80.9994388922,1
3699000000,44.9990997981,-80.9994388892,1
3719000000,44.9990997981,-80.999438886,1
3739000000,44.9990997981,-80.9994388831,1
3761000000,44.999099798,-80.9994388797,1
3778000000,44.999099798,-80.9994388771,1
3799000000,44.9990997979,-80.9994388741,1
3818000000,44.9990997979,-80.9994388711,1
3838000000,44.9990997978,-80.9994388681,1
3859000000,44.9990997978,-80.9994388651,1
3878000000,44.9990997977,-80.9994388622,1
3899000000,44.9990997977,-80.999438859,1
3918000000,44.9990997977,-80.999438856,1
3939000000,44.9990997976,-80.999438853,1
3958000000,44.9990997976,-80.99943885,1
3979000000,44.9990997975,-80.999438847,1
3998000000,44.9990997975,-80.9994388441,1
4001000000,46.9863328964,-75.4248991339,-1
4018000000,44.9990997974,-80.9994388409,1
4039000000,44.9990997974,-80.9994388379,1
4059000000,44.9990997973,-80.9994388347,1
4079000000,44.9990997973,-80.9994388319,1
4098000000,44.9990997972,-80.999438829,1
4118000000,44.9990997972,-80.9994388259,1
4138000000,44.9990997972,-80.9994388228,1
4161000000,44.9990997971,-80.9994388195,1
4178000000,44.9990997971,-80.9994388168,1
4198000000,44.999099797,-80.9994388138,1
4219000000,44.999099797,-80.9994388108,1
4239000000,44.9990997969,-80.9994388076,1
4259000000,44.9990997969,-80.9994388047,1
4282000000,44.9990997969,-80.9994388011,1
4299000000,44.9990997968,-80.9994387985,1
4318000000,44.9990997968,-80.9994387957,1
4338000000,44.9990997967,-80.9994387928,1
4359000000,44.9990997966,-80.9994387895,1
4379000000,44.9990997966,-80.9994387866,1
4399000000,44.9990997966,-80.9994387836,1
4423000000,44.9990997965,-80.9994387803,1
4440000000,44.9990997965,-80.9994387774,1
4458000000,44.9990997964,-80.9994387746,1
4479000000,44.9990997964,-80.9994387716,1
4498000000,44.9990997963,-80.9994387687,1
4519000000,44.9990997963,-80.9994387655,1
4538000000,44.9990997963,-80.9994387625,1
4561000000,44.9990997962,-80.9994387595,1
4578000000,44.9990997962,-80.9994387565,1
4598000000,44.9990997961,-80.9994387535,1
4618000000,44.9990997961,-80.9994387505,1
4639000000,44.999099796,-80.9994387473,1
4658000000,44.999099796,-80.9994387444,1
4679000000,44.9990997959,-80.9994387414,1
4699000000,44.9990997959,-80.9994387384,1
4719000000,44.9990997958,-80.9994387354,1
4739000000,44.9990997958,-80.9994387322,1
4762000000,44.9990997958,-80.9994387293,1
4788000000,44.9990997957,-80.9994387254,1
4799000000,44.9990997957,-80.9994387233,1
4823000000,44.9990997956,-80.9994387198,1
4839000000,44.9990997955,-80.9994387171,1
4858000000,44.9990997955,-80.9994387143,1
4879000000,44.9990997954,-80.9994387111,1
4901000000,44.9990997954,-80.9994387079,1
4918000000,44.9990997954,-80.9994387052,1
4938000000,44.9990997953,-80.9994387022,1
4959000000,44.9990997952,-80.999438699,1
4978000000,44.9990997952,-80.9994386962,1
4999000000,44.9990997951,-80.999438693,1
5019000000,44.9990997951,-80.9994386901,1
5039000000,44.9990997951,-80.9994386871,1
5059000000,44.999099795,-80.9994386841,1
5078000000,44.999099795,-80.9994386811,1
5100000000,44.9990997949,-80.9994386778,1
5125000000,44.9990997949,-80.9994386744,1
5138000000,44.9990997948,-80.999438672,1
5160000000,44.9990997948,-80.9994386689,1
5179000000,44.9990997947,-80.999438666,1
5198000000,44.9990997947,-80.999438663,1
5218000000,44.9990997946,-80.9994386601,1
5238000000,44.9990997946,-80.9994386569,1
5262000000,44.9990997945,-80.9994386535,1
5280000000,44.9990997945,-80.9994386508,1
5299000000,44.9990997944,-80.9994386477,1
5319000000,44.9990997944,-80.9994386447,1
5339000000,44.9990997943,-80.9994386417,1
5361000000,44.9990997943,-80.999438639,1
5379000000,44.9990997942,-80.9994386358,1
5400000000,44.9990997942,-80.9994386325,1
5422000000,44.9990997941,-80.9994386298,1
5442000000,44.9990997941,-80.9994386265,1
5462000000,44.9990997941,-80.9994386236,1
5478000000,44.999099794,-80.9994386189,1
5499000000,44.9990997939,-80.9994386123,1
5519000000,44.9990997938,-80.9994386032,1
5538000000,44.9990997938,-80.9994385931,1
5559000000,44.9990997937,-80.9994385805,1
5578000000,44.9990997935,-80.9994385675,1
5599000000,44.9990997934,-80.9994385524,1
5619000000,44.9990997933,-80.9994385373,1
5639000000,44.9990997931,-80.9994385215,1
5658000000,44.9990997929,-80.9994385057,1
5684000000,44.9990997926,-80.9994384832,1
5702000000,44.9990997925,-80.9994384696,1
5719000000,44.9990997923,-80.9994384507,1
5739000000,44.9990997921,-80.9994384301,1
5771000000,44.9990997919,-80.9994384054,1
5785000000,44.9990997917,-80.9994383851,1
5799000000,44.9990997916,-80.9994383674,1
5818000000,44.9990997913,-80.9994383444,1
5853000000,44.999099791,-80.9994383072,1
5858000000,44.9990997909,-80.9994382972,1
5880000000,44.9990997907,-80.9994382679,1
5905000000,44.9990997904,-80.9994382373,1
5919000000,44.9990997902,-80.9994382167,1
5945000000,44.9990997899,-80.9994381782,1
5962000000,44.9990997897,-80.9994381576,1
5978000000,44.9990997895,-80.9994381289,1
5998000000,44.9990997892,-80.9994380993,1
6004000000,37.1608333871,-82.6981704535,-1
6018000000,44.9990997889,-80.9994380671,1
6044000000,44.9990997885,-80.9994380237,1
6059000000,44.9990997884,-80.9994379979,1
6078000000,44.999099788,-80.9994379643,1
6101000000,44.9990997877,-80.9994379205,1
6118000000,44.9990997874,-80.9994378904,1
6139000000,44.9990997871,-80.9994378497,1
6158000000,44.9990997868,-80.9994378097,1
6179000000,44.9990997863,-80.9994377662,1
6199000000,44.9990997859,-80.9994377235,1
6225000000,44.9990997856,-80.9994376816,1
6240000000,44.9990997851,-80.9994376314,1
6270000000,44.9990997847,-80.9994375866,1
6278000000,44.9990997843,-80.9994375428,1
6304000000,44.9990997836,-80.9994374772,1
6319000000,44.9990997833,-80.9994374381,1
6338000000,44.9990997827,-80.9994373844,1
6358000000,44.9990997821,-80.9994373316,1
6380000000,44.9990997814,-80.9994372685,1
6398000000,44.9990997808,-80.9994372122,1
6419000000,44.9990997801,-80.999437151,1
6439000000,44.9990997794,-80.999437091,1
6464000000,44.9990997784,-80.999437006,1
6479000000,44.9990997778,-80.9994369553,1
6498000000,44.9990997769,-80.9994368894,1
6523000000,44.9990997757,-80.999436796,1
6540000000,44.9990997749,-80.9994367367,1
6560000000,44.999099774,-80.9994366643,1
6578000000,44.9990997729,-80.9994365858,1
6604000000,44.9990997714,-80.9994364843,1
6619000000,44.9990997705,-80.9994364215,1
6638000000,44.9990997691,-80.9994363355,1
6658000000,44.9990997678,-80.999436247,1
6679000000,44.9990997663,-80.9994361557,1
6698000000,44.9990997647,-80.9994360617,1
6725000000,44.9990997626,-80.9994359403,1
6739000000,44.9990997613,-80.9994358653,1
6767000000,44.9990997586,-80.999435721,1
6770000000,44.9990997575,-80.9994356573,1
6799000000,44.9990997552,-80.9994355432,1
6819000000,44.9990997532,-80.9994354371,1
6839000000,44.9990997508,-80.9994353222,1
6858000000,44.9990997484,-80.9994352041,1
6888000000,44.9990997458,-80.9994350827,1
6898000000,44.999099743,-80.9994349578,1
6922000000,44.9990997401,-80.9994348295,1
6940000000,44.999099737,-80.9994346976,1
6960000000,44.9990997336,-80.9994345621,1
6979000000,44.99909973,-80.9994344158,1
6999000000,44.9990997265,-80.99943428,1
7025000000,44.9990997228,-80.9994341408,1
7039000000,44.9990997186,-80.9994339828,1
7059000000,44.9990997142,-80.9994338283,1
7078000000,44.9990997095,-80.9994336698,1
7099000000,44.9990997042,-80.9994335073,1
7118000000,44.9990996989,-80.9994333407,1
7147000000,44.9990996911,-80.9994331003,1
7158000000,44.9990996876,-80.9994329947,1
7181000000,44.9990996805,-80.9994327972,1
7199000000,44.9990996744,-80.9994326224,1
7218000000,44.9990996672,-80.9994324437,1
7238000000,44.9990996604,-80.999432251,1
7259000000,44.999099653,-80.9994320539,1
7278000000,44.9990996453,-80.9994318625,1
7299000000,44.9990996364,-80.9994316461,1
7319000000,44.9990996276,-80.9994314353,1
7338000000,44.9990996188,-80.9994312306,1
7359000000,44.9990996085,-80.9994309993,1
7378000000,44.9990995983,-80.9994307741,1
7406000000,44.9990995876,-80.9994305441,1
7423000000,44.9990995741,-80.9994302616,1
7438000000,44.9990995653,-80.9994300815,1
7458000000,44.9990995531,-80.9994298369,1
7481000000,44.9990995377,-80.9994295369,1
7500000000,44.9990995256,-80.9994293071,1
7519000000,44.9990995123,-80.9994290601,1
7539000000,44.9990994978,-80.9994287951,1
7559000000,44.9990994818,-80.9994285113,1
7590000000,44.9990994635,-80.999428194,1
7598000000,44.999099451,-80.9994279833,1
7620000000,44.999099432,-80.999427669,1
7638000000,44.9990994158,-80.9994274071,1
7659000000,44.9990993961,-80.9994270962,1
7679000000,44.9990993765,-80.9994267947,1
7699000000,44.9990993551,-80.9994264724,1
7719000000,44.9990993339,-80.99942616,1
7739000000,44.9990993129,-80.9994258583,1
7759000000,44.9990992899,-80.9994255353,1
7786000000,44.9990992561,-80.9994250739,1
7798000000,44.9990992411,-80.9994248729,1
7817000000,44.9990992165,-80.9994245504,1
7838000000,44.9990991883,-80.999424188,1
7859000000,44.9990991589,-80.9994238193,1
7879000000,44.9990991312,-80.9994234802,1
7898000000,44.9990991025,-80.9994231359,1
7918000000,44.9990990712,-80.9994227678,1
7938000000,44.999099037,-80.9994223748,1
7958000000,44.9990990049,-80.9994220137,1
7979000000,44.999098968,-80.9994216082,1
7998000000,44.9990989334,-80.9994212355,1
7999000000,35.0821467889,-80.1356026569,-1
8018000000,44.9990988956,-80.9994208374,1
8046000000,44.9990988545,-80.9994204127,1
8058000000,44.9990988138,-80.9994200019,1
8079000000,44.9990987717,-80.999419585,1
8098000000,44.999098728,-80.9994191618,1
8126000000,44.9990986687,-80.9994186023,1
8141000000,44.9990986357,-80.9994182966,1
8159000000,44.9990985871,-80.9994178545,1
8181000000,44.9990985291,-80.9994173382,1
8204000000,44.9990984687,-80.9994168134,1
8213000000,44.999098417,-80.9994163735,1
8238000000,44.9990983749,-80.9994160221,1
8258000000,44.9990983201,-80.9994155717,1
8278000000,44.9990982606,-80.9994150913,1
8297000000,44.9990981958,-80.9994145799,1
8324000000,44.9990981256,-80.9994140364,1
8338000000,44.9990980663,-80.9994135859,1
8361000000,44.9990979879,-80.9994130024,1
8382000000,44.9990979173,-80.9994124879,1
8408000000,44.9990978297,-80.9994118618,1
8418000000,44.9990977808,-80.9994115187,1
8439000000,44.9990977037,-80.9994109853,1
8459000000,44.9990976241,-80.9994104453,1
8478000000,44.9990975462,-80.9994099261,1
8498000000,44.9990974575,-80.9994093452,1
8522000000,44.9990973526,-80.9994086724,1
8538000000,44.9990972805,-80.9994082184,1
8566000000,44.999097155,-80.9994074427,1
8578000000,44.9990970976,-80.9994070939,1
8600000000,44.9990969847,-80.9994064187,1
8619000000,44.9990968886,-80.9994058542,1
8639000000,44.9990967898,-80.9994052836,1
8660000000,44.9990966829,-80.9994046763,1
8679000000,44.999096573,-80.9994040622,1
8699000000,44.9990964542,-80.9994034101,1
8722000000,44.999096326,-80.9994027189,1
8739000000,44.9990962242,-80.9994021791,1
8759000000,44.9990961015,-80.9994015377,1
8786000000,44.9990959754,-80.9994008895,1
8799000000,44.9990958394,-80.9994002016,1
8823000000,44.999095686,-80.9993994397,1
8841000000,44.9990955696,-80.9993988708,1
8865000000,44.9990953867,-80.9993979914,1
8879000000,44.9990952929,-80.9993975474,1
8925000000,44.9990949484,-80.9993959537,1
8925000000,44.9990949484,-80.9993959537,1
8939000000,44.9990948396,-80.9993954617,1
8964000000,44.9990946323,-80.9993945393,1
8982000000,44.9990944849,-80.9993938941,1
8998000000,44.9990943596,-80.9993933523,1
9019000000,44.9990941803,-80.9993925874,1
9038000000,44.9990940053,-80.9993918522,1
9060000000,44.9990938261,-80.9993911103,1
9088000000,44.9990936055,-80.9993902111,1
9098000000,44.9990934549,-80.9993896064,1
9121000000,44.9990932433,-80.9993887677,1
9140000000,44.9990930464,-80.9993879981,1
9167000000,44.9990928041,-80.9993870657,1
9179000000,44.9990926597,-80.9993865173,1
9198000000,44.9990924497,-80.999385728,1
9227000000,44.9990921917,-80.9993847719,1
9238000000,44.999092016,-80.999384129,1
9258000000,44.9990917922,-80.9993833194,1
9281000000,44.9990915408,-80.9993824208,1
9308000000,44.9990913073,-80.9993815968,1
9319000000,44.9990910812,-80.9993808077,1
9338000000,44.9990908631,-80.9993800544,1
9359000000,44.9990906038,-80.9993791686,1
9378000000,44.9990903522,-80.999378318,1
9407000000,44.999090005,-80.999377159,1
9418000000,44.9990898348,-80.9993765965,1
9439000000,44.9990895691,-80.9993757256,1
9459000000,44.9990892987,-80.999374848,1
9480000000,44.9990890236,-80.9993739636,1
9510000000,44.9990886731,-80.9993728489,1
9524000000,44.9990884163,-80.9993720398,1
9539000000,44.9990881702,-80.9993712708,1
9560000000,44.9990878615,-80.9993703142,1
9578000000,44.9990875777,-80.9993694425,1
9606000000,44.9990871517,-80.9993681472,1
9620000000,44.9990869351,-80.9993674946,1
9640000000,44.9990866217,-80.9993665568,1
9660000000,44.9990863196,-80.9993656596,1
9678000000,44.9990860132,-80.9993647564,1
9698000000,44.9990856861,-80.9993637991,1
9718000000,44.9990853711,-80.9993628834,1
9739000000,44.9990850182,-80.9993618641,1
9759000000,44.9990846775,-80.9993608862,1
9779000000,44.999084315,-80.999359852,1
9798000000,44.999083983,-80.9993589097,1
9825000000,44.9990835048,-80.9993575596,1
9838000000,44.9990832898,-80.9993569554,1
9863000000,44.9990828193,-80.9993556375,1
9879000000,44.9990825265,-80.9993548204,1
9899000000,44.9990821573,-80.9993537925,1
9929000000,44.9990816155,-80.999352289,1
9936000000,44.999081446,-80.9993518192,1
9959000000,44.9990810477,-80.9993507172,1
9978000000,44.9990806844,-80.9993497128,1
9999000000,44.9990802796,-80.9993485948,1
10002000000,48.3387128438,-72.2574189976,-1
10019000000,44.9990798912,-80.999347522,1
10040000000,44.9990795,-80.9993464415,1
10058000000,44.9990791062,-80.999345353,1
10078000000,44.99907871,-80.9993442563,1
10099000000,44.9990783118,-80.9993431505,1
10119000000,44.9990778921,-80.9993419812,1
10138000000,44.9990775107,-80.9993409148,1
10164000000,44.999076986,-80.9993394432,1
10179000000,44.9990767025,-80.9993386446,1
10208000000,44.9990761946,-80.9993372078,1
10219000000,44.999075889,-80.9993363391,1
10238000000,44.9990754805,-80.9993351729,1
10264000000,44.9990750711,-80.9993339976,1
10278000000,44.9990746608,-80.9993328131,1
10298000000,44.9990742703,-80.9993316792,1
10318000000,44.9990738382,-80.9993304161,1
10339000000,44.9990734262,-80.9993292035,1
10359000000,44.9990730138,-80.9993279812,1
10383000000,44.9990725805,-80.9993266874,1
10395000000,44.9990721884,-80.9993255076,1
10423000000,44.9990717757,-80.9993242561,1
10438000000,44.9990713631,-80.9993229947,1
10458000000,44.9990709507,-80.9993217233,1
10485000000,44.999070415,-80.9993200553,1
10503000000,44.9990700448,-80.9993188906,1
10519000000,44.9990697163,-80.9993178485,1
10539000000,44.9990693067,-80.9993165366,1
10560000000,44.9990688984,-80.9993152144,1
10579000000,44.9990684916,-80.9993138818,1
10600000000,44.9990680465,-80.9993124037,1
10628000000,44.9990676644,-80.9993111169,1
10639000000,44.9990672647,-80.9993097517,1
10654000000,44.9990668682,-80.9993083756,1
10679000000,44.9990664751,-80.9993069883,1
10698000000,44.9990661245,-80.99930573,1
10718000000,44.9990657197,-80.9993042503,1
10738000000,44.9990653577,-80.9993029005,1
10758000000,44.9990649815,-80.9993014682,1
10783000000,44.9990645919,-80.9992999514,1
10811000000,44.99906401,-80.9992976146,1
10818000000,44.9990638847,-80.9992970993,1
10838000000,44.9990635133,-80.9992955444,1
10881000000,44.9990630464,-80.9992935254,1
10883000000,44.9990627923,-80.9992923942,1
10898000000,44.9990625092,-80.9992911037,1
10918000000,44.9990621669,-80.9992894974,1
10939000000,44.9990618487,-80.999287955,1
10959000000,44.9990615229,-80.9992863222,1
10984000000,44.9990611616,-80.9992844394,1
11009000000,44.9990607981,-80.9992824595,1
11026000000,44.999060545,-80.9992810221,1
11039000000,44.9990603941,-80.9992801388,1
11058000000,44.9990601139,-80.9992784424,1
11078000000,44.9990598568,-80.9992768145,1
11099000000,44.9990595975,-80.9992750925,1
11118000000,44.9990593839,-80.999273606,1
11138000000,44.9990591565,-80.9992719433,1
11159000000,44.9990589292,-80.9992701848,1
11179000000,44.9990587239,-80.9992684981,1
11198000000,44.9990585391,-80.9992668851,1
11218000000,44.9990583468,-80.9992650904,1
11239000000,44.9990581756,-80.9992633696,1
11260000000,44.9990580162,-80.9992616378,1
11298000000,44.999057876,-80.9992599824,1
11299000000,44.9990577341,-80.9992581415,1
11318000000,44.9990576176,-80.9992564658,1
11339000000,44.9990575021,-80.9992546026,1
11366000000,44.9990574009,-80.9992527282,1
11379000000,44.9990573179,-80.9992509328,1
11404000000,44.9990572359,-80.9992487654,1
11418000000,44.999057197,-80.9992474947,1
11442000000,44.9990571459,-80.9992453058,1
11460000000,44.9990571218,-80.9992437473,1
11478000000,44.9990571064,-80.9992419057,1
11498000000,44.999057105,-80.9992401482,1
11517000000,44.9990571175,-80.9992382898,1
11538000000,44.9990571464,-80.9992363295,1
11558000000,44.9990571862,-80.9992345482,1
11579000000,44.9990572457,-80.999232571,1
11599000000,44.9990573215,-80.9992305856,1
11619000000,44.9990574042,-80.9992287823,1
11638000000,44.999057506,-80.9992268771,1
11659000000,44.9990576228,-80.999224965,1
11679000000,44.9990577478,-80.9992231423,1
11712000000,44.9990580053,-80.9992198662,1
11718000000,44.9990580638,-80.9992191894,1
11738000000,44.9990582316,-80.9992173491,1
11761000000,44.9990584531,-80.9992151145,1
11779000000,44.9990586512,-80.9992132632,1
11801000000,44.9990588859,-80.9992112115,1
11818000000,44.9990591003,-80.9992094485,1
11842000000,44.9990593787,-80.9992072885,1
11859000000,44.9990596336,-80.9992054185,1
11884000000,44.9990599893,-80.9992029519,1
11899000000,44.9990602136,-80.9992014688,1
11914000000,44.9990605095,-80.9991995868,1
11944000000,44.9990608849,-80.9991973038,1
11959000000,44.9990611917,-80.9991955137,1
11982000000,44.9990615821,-80.9991933217,1
11999000000,44.9990619139,-80.9991915251,1
12002000000,43.9024347891,-74.5171979924,-1
12018000000,44.9990622761,-80.9991896258,1
12039000000,44.9990626904,-80.999187523,1
12059000000,44.9990630778,-80.9991856175,1
12094000000,44.9990637349,-80.9991825025,1
12098000000,44.9990639094,-80.9991816974,1
12123000000,44.9990644449,-80.9991792794,1
12144000000,44.9990649512,-80.9991770592,1
12164000000,44.9990654241,-80.9991750379,1
12180000000,44.9990657864,-80.99917352,1
12198000000,44.9990662795,-80.9991714939,1
12229000000,44.9990670403,-80.9991684494,1
12239000000,44.9990672993,-80.9991674332,1
12264000000,44.9990678254,-80.9991653987,1
12278000000,44.9990683621,-80.9991633614,1
12294000000,44.9990689918,-80.9991610149,1
12319000000,44.9990694657,-80.9991592781,1
12339000000,44.9990700322,-80.9991572321,1
12359000000,44.9990706082,-80.9991551831,1
12379000000,44.9990711934,-80.999153131,1
12399000000,44.9990717875,-80.9991510758,1
12418000000,44.99907236,-80.9991491203,1
12438000000,44.9990729708,-80.9991470586,1
12463000000,44.9990737771,-80.9991443733,1
12487000000,44.9990745014,-80.9991419928,1
12498000000,44.9990748833,-80.9991407489,1
12518000000,44.9990755258,-80.9991386728,1
12539000000,44.999076208,-80.9991364887,1
12559000000,44.9990768318,-80.9991345089,1
12579000000,44.9990775283,-80.9991323164,1
12598000000,44.9990781309,-80.9991304334,1
12618000000,44.9990788064,-80.9991283371,1
12638000000,44.999079522,-80.9991261312,1
12660000000,44.999080244,-80.9991239201,1
12678000000,44.9990809024,-80.9991219152,1
12698000000,44.9990816006,-80.9991197999,1
12718000000,44.9990823038,-80.9991176796,1
12740000000,44.9990830473,-80.9991154477,1
12758000000,44.9990836887,-80.99911353,1
12779000000,44.9990844414,-80.9991112871,1
12798000000,44.9990851625,-80.9991091453,1
12819000000,44.9990858876,-80.9991069977,1
12839000000,44.9990866163,-80.9991048442,1
12859000000,44.9990873486,-80.9991026848,1
12878000000,44.9990880842,-80.9991005192,1
12898000000,44.9990888228,-80.9990983472,1
12918000000,44.9990895273,-80.9990962779,1
12940000000,44.9990903832,-80.9990937651,1
12960000000,44.9990910928,-80.9990916826,1
12979000000,44.9990918044,-80.9990895938,1
12999000000,44.9990925558,-80.9990873885,1
13019000000,44.9990933468,-80.9990850653,1
13038000000,44.999094064,-80.9990829564,1
13058000000,44.9990947828,-80.999080841,1
13078000000,44.9990955787,-80.9990784952,1
13099000000,44.999096338,-80.9990762532,1
13119000000,44.9990970984,-80.9990740037,1
13140000000,44.9990978979,-80.9990716333,1
13159000000,44.9990986598,-80.9990693676,1
13175000000,44.9990994225,-80.9990670939,1
13199000000,44.9991001473,-80.9990649264,1
13219000000,44.9991009105,-80.9990626369,1
13246000000,44.999101979,-80.9990594175,1
13266000000,44.999102475,-80.9990579171,1
13278000000,44.9991031997,-80.9990557178,1
13299000000,44.999103962,-80.9990533944,1
13329000000,44.9991047237,-80.9990510623,1
13335000000,44.9991057508,-80.9990478999,1
13358000000,44.9991062446,-80.9990463715,1
13379000000,44.9991070035,-80.9990440127,1
13398000000,44.9991077233,-80.9990417635,1
13418000000,44.9991084795,-80.9990393869,1
13439000000,44.9991092718,-80.9990368816,1
13461000000,44.9991100623,-80.999034366,1
13478000000,44.9991107757,-80.999032081,1
13510000000,44.9991119731,-80.9990282134,1
13519000000,44.9991122715,-80.9990272426,1
13540000000,44.9991130532,-80.9990246872,1
13559000000,44.999113758,-80.9990223659,1
13580000000,44.9991144975,-80.999019913,1
13598000000,44.9991152342,-80.9990174504,1
13618000000,44.999115968,-80.999014978,1
13636000000,44.9991166989,-80.9990124957,1
13663000000,44.9991174629,-80.9990098786,1
13681000000,44.9991182232,-80.9990072505,1
13698000000,44.9991188361,-80.9990051149,1
13718000000,44.9991195896,-80.9990024668,1
13739000000,44.9991203391,-80.9989998076,1
13758000000,44.9991210137,-80.9989973921,1
13779000000,44.9991217199,-80.9989948395,1
13801000000,44.9991224222,-80.9989922768,1
13823000000,44.9991232247,-80.998989317,1
13840000000,44.9991238835,-80.9989868618,1
13859000000,44.9991245039,-80.9989845274,1
13879000000,44.9991252232,-80.9989817933,1
13898000000,44.9991258357,-80.998979441,1
13919000000,44.9991265792,-80.9989765547,1
13939000000,44.9991272166,-80.9989740526,1
13959000000,44.9991279171,-80.9989712759,1
13978000000,44.9991285461,-80.9989687559,1
13998000000,44.9991291695,-80.9989662281,1
14001000000,40.7773065227,-87.5331744096,-1
14018000000,44.9991298521,-80.998963425,1
14038000000,44.999130496,-80.9989607464,1
14059000000,44.9991311655,-80.9989579253,1
14079000000,44.9991317939,-80.99895523,1
14099000000,44.9991324124,-80.9989525268,1
14121000000,44.9991330514,-80.9989496802,1
14138000000,44.9991335894,-80.9989472336,1
14160000000,44.9991342042,-80.9989443717,1
14188000000,44.9991350286,-80.9989404056,1
14202000000,44.9991354155,-80.998938485,1
14218000000,44.9991358246,-80.9989364237,1
14228000000,44.9991363923,-80.998933533,1
14257000000,44.9991368959,-80.9989309109,1
14279000000,44.9991374389,-80.9989279993,1
14298000000,44.9991379408,-80.9989252123,1
14319000000,44.9991384515,-80.9989222721,1
14338000000,44.9991388761,-80.9989197411,1
14358000000,44.9991393918,-80.9989169009,1
14378000000,44.9991398968,-80.9989138664,1
14402000000,44.9991404109,-80.9989106839,1
14421000000,44.9991408143,-80.9989077614,1
14440000000,44.9991411782,-80.9989049771,1
14463000000,44.9991414918,-80.9989021715,1
14478000000,44.999141778,-80.9988992089,1
14499000000,44.9991420253,-80.9988962276,1
14522000000,44.9991422331,-80.9988927801,1
14539000000,44.9991423536,-80.9988900697,1
14558000000,44.9991425006,-80.9988873485,1
14580000000,44.9991427293,-80.9988838738,1
14599000000,44.9991429364,-80.9988810014,1
14619000000,44.9991431473,-80.9988779698,1
14638000000,44.9991433132,-80.9988752312,1
14663000000,44.9991434978,-80.9988715667,1
14679000000,44.9991436058,-80.9988689624,1
14699000000,44.9991437137,-80.9988658898,1
14718000000,44.9991438013,-80.9988628086,1
14741000000,44.9991438712,-80.9988592547,1
14759000000,44.9991438998,-80.9988566208,1
14779000000,44.9991439105,-80.998853515,1
14798000000,44.9991439,-80.9988505578,1
14819000000,44.9991438646,-80.9988472825,1
14845000000,44.9991438014,-80.9988440006,1
14858000000,44.9991437186,-80.9988410264,1
14879000000,44.9991435987,-80.998837734,1
14901000000,44.9991434652,-80.9988347508,1
14925000000,44.9991432438,-80.9988306628,1
14940000000,44.9991430948,-80.9988283016,1
14975000000,44.9991426709,-80.9988226285,1
14979000000,44.9991426314,-80.9988221554,1
15009000000,44.9991423515,-80.9988190002,1
15030000000,44.9991419942,-80.9988153699,1
15040000000,44.9991417051,-80.998812686,1
15062000000,44.9991413243,-80.9988090889,1
15081000000,44.9991409869,-80.9988059935,1
15098000000,44.9991406935,-80.9988033637,1
15118000000,44.9991403258,-80.9988002841,1
15161000000,44.9991398787,-80.9987964363,1
15176000000,44.999139353,-80.9987915134,1
15184000000,44.9991392336,-80.9987902829,1
15210000000,44.9991388891,-80.9987862838,1
15218000000,44.999138769,-80.998784901,1
15238000000,44.9991384821,-80.9987818312,1
15259000000,44.9991381735,-80.9987787653,1
15279000000,44.9991378679,-80.9987757016,1
15304000000,44.9991375669,-80.9987726402,1
15319000000,44.9991372656,-80.9987695813,1
15338000000,44.9991369789,-80.9987666774,1
15360000000,44.9991366448,-80.9987633179,1
15378000000,44.9991363682,-80.9987605716,1
15398000000,44.9991360404,-80.9987573706,1
15418000000,44.9991357215,-80.9987543254,1
15442000000,44.9991353446,-80.9987508281,1
15458000000,44.9991350576,-80.9987482466,1
15479000000,44.9991347093,-80.9987452136,1
15503000000,44.9991343292,-80.9987420343,1
15521000000,44.9991339326,-80.9987388608,1
15541000000,44.9991335377,-80.9987358444,1
15558000000,44.9991331662,-80.998733135,1
15588000000,44.9991325569,-80.9987289307,1
15598000000,44.9991322835,-80.9987271329,1
15632000000,44.9991316367,-80.9987220288,1
15639000000,44.9991315329,-80.9987211271,1
15663000000,44.99913108,-80.9987173756,1
15692000000,44.9991306354,-80.9987139328,1
15699000000,44.9991303945,-80.9987121399,1
15718000000,44.9991299583,-80.9987091651,1
15742000000,44.9991294345,-80.998705749,1
15758000000,44.9991290271,-80.998703227,1
15779000000,44.9991284497,-80.9987000896,1
15798000000,44.9991277059,-80.9986968953,1
15818000000,44.9991269491,-80.9986935097,1
15838000000,44.9991262667,-80.9986902833,1
15859000000,44.9991255193,-80.998686727,1
15881000000,44.9991247191,-80.9986828444,1
15905000000,44.9991241107,-80.998679811,1
15920000000,44.9991234918,-80.9986766109,1
15938000000,44.9991228656,-80.9986732448,1
15958000000,44.9991222689,-80.9986698776,1
15979000000,44.9991216658,-80.9986665269,1
16002000000,44.999120898,-80.9986625353,1
16004000000,46.2573045923,-80.9006722041,-1
16021000000,44.9991202166,-80.998659518,1
16039000000,44.9991195445,-80.9986564901,1
16064000000,44.9991185563,-80.9986521475,1
16078000000,44.9991180053,-80.9986498301,1
16098000000,44.9991172043,-80.9986467051,1
16118000000,44.9991163445,-80.9986434139,1
16138000000,44.9991154177,-80.9986399742,1
16159000000,44.999114542,-80.9986366985,1
16180000000,44.9991136295,-80.9986330749,1
16200000000,44.9991128713,-80.9986299304,1
16219000000,44.9991121455,-80.9986267699,1
16243000000,44.9991113532,-80.9986230875,1
16259000000,44.9991106878,-80.9986199021,1
16278000000,44.9991100299,-80.9986169011,1
16300000000,44.9991091908,-80.9986132486,1
16319000000,44.9991084332,-80.9986101088,1
16338000000,44.9991076436,-80.9986069824,1
16363000000,44.9991065516,-80.998602892,1
16378000000,44.9991058235,-80.9986002866,1
16403000000,44.9991047326,-80.9985961968,1
16418000000,44.9991041443,-80.998593894,1
16439000000,44.9991032911,-80.9985904226,1
16459000000,44.99910252,-80.9985870942,1
16479000000,44.999101782,-80.9985837475,1
16499000000,44.9991010098,-80.9985804191,1
16520000000,44.9991001236,-80.9985767729,1
16540000000,44.9990993209,-80.9985736408,1
16559000000,44.9990984857,-80.9985705225,1
16579000000,44.9990976116,-80.9985672358,1
16598000000,44.9990967784,-80.9985639285,1
16619000000,44.9990959828,-80.9985605991,1
16638000000,44.9990952386,-80.9985574305,1
16666000000,44.9990940411,-80.998552623,1
16679000000,44.9990935268,-80.9985506416,1
16698000000,44.9990926885,-80.9985473287,1
16718000000,44.9990918623,-80.9985440092,1
16744000000,44.9990907773,-80.9985396967,1
16758000000,44.99909023,-80.9985375406,1
16784000000,44.999089264,-80.9985337247,1
16799000000,44.999088531,-80.9985307259,1
16820000000,44.9990877267,-80.9985273874,1
16838000000,44.9990869162,-80.9985240502,1
16858000000,44.9990860918,-80.9985207148,1
16878000000,44.9990852895,-80.9985173607,1
16899000000,44.9990845361,-80.9985141616,1
16919000000,44.9990836621,-80.9985104479,1
16941000000,44.9990828343,-80.9985068904,1
16959000000,44.9990820934,-80.9985036628,1
16979000000,44.9990813586,-80.9985004311,1
16998000000,44.9990806321,-80.9984971956,1
17019000000,44.9990798031,-80.9984934445,1
17044000000,44.999079097,-80.998490201,1
17058000000,44.9990784007,-80.9984869535,1
17090000000,44.999077679,-80.9984835298,1
17099000000,44.9990768985,-80.9984797571,1
17119000000,44.9990762015,-80.9984763208,1
17140000000,44.9990755168,-80.9984728781,1
17161000000,44.9990748115,-80.998469257,1
17179000000,44.9990742513,-80.9984663209,1
17198000000,44.9990736051,-80.9984628612,1
17219000000,44.9990729418,-80.9984592223,1
17238000000,44.9990723554,-80.9984559243,1
17259000000,44.9990717228,-80.9984522731,1
17281000000,44.9990710494,-80.9984482668,1
17298000000,44.9990705653,-80.9984453007,1
17319000000,44.9990700109,-80.9984418056,1
17339000000,44.9990694731,-80.9984383046,1
17361000000,44.9990689268,-80.9984346222,1
17384000000,44.999068326,-80.9984304057,1
17403000000,44.9990678448,-80.9984268856,1
17416000000,44.9990675187,-80.998424418,1
17438000000,44.9990670464,-80.9984207115,1
17458000000,44.9990666367,-80.9984173527,1
17478000000,44.9990662245,-80.9984138116,1
17499000000,44.999065811,-80.9984100885,1
17519000000,44.9990654374,-80.9984065376,1
17538000000,44.9990650833,-80.998402982,1
17558000000,44.9990647649,-80.9983996,1
17578000000,44.9990644336,-80.9983958572,1
17608000000,44.9990639979,-80.9983905021,1
17619000000,44.9990638492,-80.9983885362,1
17639000000,44.9990636064,-80.9983851378,1
17658000000,44.9990633816,-80.998381736,1
17680000000,44.9990631432,-80.9983777931,1
17699000000,44.9990629566,-80.9983743846,1
17722000000,44.9990627462,-80.9983700753,1
17738000000,44.9990626288,-80.9983673799,1
17759000000,44.9990624767,-80.9983634239,1
17778000000,44.9990623698,-80.9983601849,1
17800000000,44.9990622563,-80.9983560435,1
17817000000,44.9990621854,-80.9983528005,1
17838000000,44.9990621274,-80.9983493756,1
17858000000,44.9990620839,-80.9983455884,1
17880000000,44.9990620618,-80.9983417994,1
17894000000,44.9990620597,-80.9983383699,1
17919000000,44.9990620754,-80.9983347587,1
17943000000,44.9990621094,-80.9983311465,1
17959000000,44.9990621614,-80.9983275335,1
17979000000,44.9990622312,-80.9983239198,1
18005000000,44.9990623537,-80.9983190405,1
18006000000,52.6066805441,-77.3396476698,-1
18018000000,44.9990624238,-80.9983166909,1
18037000000,44.9990625455,-80.9983130758,1
18064000000,44.9990627201,-80.9983085567,1
18087000000,44.9990629023,-80.998304399,1
18101000000,44.9990630054,-80.9983022298,1
18118000000,44.9990631893,-80.9982986146,1
18138000000,44.9990633879,-80.9982949997,1
18158000000,44.999063601,-80.998291385,1
18179000000,44.9990638285,-80.9982877708,1
18199000000,44.9990640698,-80.998284157,1
18218000000,44.9990643242,-80.9982805436,1
18245000000,44.9990645913,-80.9982769305,1
18260000000,44.9990648849,-80.9982731374,1
18276000000,44.999065147,-80.9982698865,1
18308000000,44.9990655108,-80.9982655527,1
18323000000,44.9990658423,-80.9982617613,1
18338000000,44.9990660864,-80.9982590535,1
18358000000,44.9990664382,-80.9982552632,1
18379000000,44.9990667839,-80.9982516541,1
18398000000,44.9990671399,-80.9982480456,1
18419000000,44.9990675058,-80.9982444377,1
18440000000,44.9990678809,-80.9982408302,1
18458000000,44.9990682452,-80.9982374035,1
18479000000,44.999068676,-80.9982334361,1
18499000000,44.9990690757,-80.9982298296,1
18518000000,44.9990694414,-80.9982265839,1
18538000000,44.999069854,-80.9982229777,1
18559000000,44.9990703154,-80.9982190111,1
18589000000,44.9990709343,-80.9982137823,1
18599000000,44.9990711501,-80.9982119791,1
18624000000,44.9990716937,-80.9982074706,1
18644000000,44.9990721543,-80.9982036828,1
18658000000,44.9990724629,-80.9982011571,1
18678000000,44.9990728832,-80.9981977287,1
18697000000,44.9990733494,-80.9981939385,1
18719000000,44.999073772,-80.9981905082,1
18738000000,44.9990742391,-80.9981867153,1
18758000000,44.9990746833,-80.9981831016,1
18778000000,44.9990751039,-80.9981796669,1
18798000000,44.9990755444,-80.9981760497,1
18818000000,44.9990760039,-80.9981722495,1
18839000000,44.9990764381,-80.9981686281,1
18858000000,44.9990768469,-80.9981651856,1
18879000000,44.9990772943,-80.9981613784,1
18899000000,44.9990777365,-80.9981575685,1
18918000000,44.999078111,-80.9981543008,1
18940000000,44.9990785622,-80.998150304,1
18958000000,44.9990789252,-80.9981470313,1
18978000000,44.9990793217,-80.9981433923,1
18999000000,44.9990797297,-80.9981395682,1
19019000000,44.9990801097,-80.9981359231,1
19038000000,44.9990804812,-80.9981322748,1
19059000000,44.9990808437,-80.9981286235,1
19092000000,44.9990813524,-80.9981233236,1
19102000000,44.9990815564,-80.9981211286,1
19118000000,44.9990818553,-80.9981178338,1
19139000000,44.9990821925,-80.9981139866,1
19188000000,44.9990826222,-80.9981088512,1
19188000000,44.9990828137,-80.9981064648,1
19198000000,44.9990830842,-80.9981029745,1
19221000000,44.9990833831,-80.9980989295,1
19245000000,44.9990836662,-80.9980948806,1
19259000000,44.9990838621,-80.9980919335,1
19278000000,44.9990840832,-80.9980884314,1
19298000000,44.9990843128,-80.9980845574,1
19318000000,44.9990845169,-80.9980808648,1
19338000000,44.9990847064,-80.9980771694,1
19360000000,44.9990848895,-80.9980732861,1
19378000000,44.9990850408,-80.9980697701,1
19404000000,44.9990852257,-80.9980649549,1
19418000000,44.9990853144,-80.9980623604,1
19438000000,44.9990854279,-80.9980586519,1
19459000000,44.9990855258,-80.998054941,1
19478000000,44.9990856041,-80.9980514138,1
19508000000,44.9990857012,-80.9980456548,1
19518000000,44.9990857244,-80.998043796,1
19538000000,44.9990857575,-80.9980402633,1
19559000000,44.9990857779,-80.9980361708,1
19578000000,44.9990857802,-80.998032821,1
19599000000,44.9990857661,-80.9980289116,1
19627000000,44.9990857179,-80.9980235104,1
19638000000,44.9990856936,-80.9980216474,1
19660000000,44.9990856262,-80.9980175479,1
19679000000,44.9990855527,-80.9980140065,1
19699000000,44.9990854551,-80.9980100915,1
19718000000,44.9990853522,-80.9980065487,1
19743000000,44.9990852094,-80.9980022594,1
19763000000,44.9990850616,-80.9979983426,1
19779000000,44.999084938,-80.9979953581,1
19798000000,44.9990847706,-80.9979916273,1
19829000000,44.999084493,-80.997986031,1
19838000000,44.9990844037,-80.9979843521,1
19858000000,44.9990841951,-80.9979806213,1
19886000000,44.9990839153,-80.9979759581,1
19899000000,44.9990837252,-80.9979729739,1
19924000000,44.9990834372,-80.9979686844,1
19939000000,44.999083227,-80.9979657008,1
19960000000,44.9990829394,-80.9979617851,1
19979000000,44.9990826534,-80.9979580563,1
19998000000,44.999082356,-80.9979543281,1
20002000000,41.4161844444,-78.8391639632,-1
20022000000,44.9990820002,-80.9979500412,1
20038000000,44.999081728,-80.9979468731,1
20068000000,44.9990812464,-80.9979414696,1
20080000000,44.9990810756,-80.9979396066,1
20100000000,44.9990806923,-80.9979355082,1
20119000000,44.9990803528,-80.9979319691,1
20139000000,44.9990799874,-80.9979282441,1
20159000000,44.9990796334,-80.9979247057,1
20179000000,44.9990792152,-80.997920609,1
20199000000,44.9990788473,-80.9979170712,1
20227000000,44.9990783741,-80.9979126027,1
20241000000,44.9990780138,-80.9979092515,1
20257000000,44.9990776494,-80.9979059003,1
20278000000,44.9990772609,-80.9979023628,1
20299000000,44.9990768066,-80.9978982665,1
20321000000,44.9990763693,-80.9978943562,1
20339000000,44.9990759919,-80.9978910041,1
20359000000,44.9990755702,-80.9978872792,1
20379000000,44.9990751466,-80.9978835538,1
20401000000,44.9990747218,-80.9978798277,1
20419000000,44.9990742751,-80.9978759145,1
20438000000,44.9990738712,-80.9978723731,1
20459000000,44.999073446,-80.9978686444,1
20483000000,44.9990729368,-80.9978641686,1
20526000000,44.9990720303,-80.9978561452,1
20526000000,44.9990720303,-80.9978561452,1
20539000000,44.9990717583,-80.9978537183,1
20558000000,44.9990713634,-80.9978501702,1
20578000000,44.999070951,-80.9978464338,1
20599000000,44.9990705225,-80.9978425088,1
20618000000,44.999070119,-80.997838769,1
20639000000,44.9990697007,-80.9978348402,1
20659000000,44.9990693271,-80.9978312838,1
20679000000,44.9990689393,-80.9978275385,1
20705000000,44.9990684819,-80.9978230415,1
20719000000,44.9990681823,-80.997820042,1
20738000000,44.9990678143,-80.9978162907,1
20760000000,44.9990674716,-80.997812725,1
20778000000,44.9990671011,-80.9978087817,1
20798000000,44.9990667568,-80.997805024,1
20818000000,44.9990664212,-80.9978012642,1
20847000000,44.999065999,-80.997796373,1
20874000000,44.9990656855,-80.9977926079,1
20890000000,44.9990653672,-80.9977886521,1
20905000000,44.999065089,-80.997785071,1
20919000000,44.9990648902,-80.997782431,1
20941000000,44.999064575,-80.9977780915,1
20959000000,44.9990643514,-80.9977748823,1
20979000000,44.9990640866,-80.997770916,1
20999000000,44.9990638463,-80.9977671364,1
21018000000,44.9990636293,-80.9977635439,1
21038000000,44.9990634128,-80.9977597604,1
21062000000,44.9990631696,-80.9977552176,1
21079000000,44.9990630175,-80.9977521877,1
21099000000,44.9990628391,-80.9977483987,1
21118000000,44.9990626817,-80.9977447975,1
21138000000,44.9990625288,-80.9977410053,1
21157000000,44.9990623827,-80.9977370218,1
21181000000,44.9990622396,-80.9977326571,1
21198000000,44.9990621453,-80.9977294299,1
21218000000,44.9990620517,-80.997725822,1
21239000000,44.9990619628,-80.9977218331,1
21258000000,44.9990618955,-80.9977182231,1
21278000000,44.9990618381,-80.9977144222,1
21299000000,44.9990617928,-80.9977104303,1
21318000000,44.9990617641,-80.9977066277,1
21339000000,44.999061749,-80.9977028245,1
21358000000,44.9990617472,-80.9976992109,1
21378000000,44.9990617587,-80.9976954068,1
21399000000,44.999061785,-80.997691412,1
21451000000,44.9990618358,-80.9976866562,1
21455000000,44.9990619278,-80.9976807587,1
21461000000,44.9990619456,-80.9976798075,1
21479000000,44.9990620208,-80.9976761929,1
21504000000,44.9990621422,-80.9976712468,1
21506000000,44.9990622219,-80.9976683935,1
21540000000,44.999062339,-80.9976645893,1
21559000000,44.9990624684,-80.9976607856,1
21581000000,44.9990626172,-80.9976567921,1
21599000000,44.9990627626,-80.9976531793,1
21619000000,44.9990629181,-80.997649567,1
21639000000,44.9990630923,-80.9976457651,1
21659000000,44.9990632771,-80.9976419639,1
21680000000,44.9990634722,-80.9976381633,1
21698000000,44.9990636669,-80.9976345535,1
21723000000,44.9990639365,-80.9976298046,1
21739000000,44.9990641165,-80.9976267659,1
21762000000,44.999064385,-80.9976223985,1
21778000000,44.9990645786,-80.9976193609,1
21800000000,44.9990648404,-80.9976153748,1
21818000000,44.9990650979,-80.9976115793,1
21844000000,44.9990654306,-80.9976068361,1
21859000000,44.9990656497,-80.997603801,1
21887000000,44.999066044,-80.9975984908,1
21899000000,44.9990662024,-80.997596405,1
21919000000,44.9990664943,-80.9975926131,1
21939000000,44.9990668074,-80.9975886323,1
21958000000,44.9990670802,-80.9975852206,1
21978000000,44.9990673874,-80.9975814303,1
22010000000,49.1552827547,-76.4414959402,-1
22015000000,44.9990679039,-80.9975751774,1
22019000000,44.9990680306,-80.9975736617,1
22041000000,44.9990683976,-80.9975693043,1
22058000000,44.9990686551,-80.9975662733,1
22083000000,44.9990690116,-80.9975621059,1
22097000000,44.9990693051,-80.9975586963,1
22122000000,44.999069682,-80.9975543398,1
22138000000,44.9990699619,-80.9975511198,1
22159000000,44.9990703086,-80.9975471422,1
22184000000,44.9990707225,-80.997542407,1
22198000000,44.9990709713,-80.9975395659,1
22218000000,44.9990713032,-80.9975357776,1
22239000000,44.9990716347,-80.9975319891,1
22258000000,44.999071949,-80.9975283898,1
22278000000,44.9990722788,-80.9975246007,1
22307000000,44.9990727866,-80.9975187269,1
22324000000,44.9990730306,-80.9975158844,1
22340000000,44.9990732895,-80.9975128521,1
22358000000,44.999073595,-80.9975092508,1
22383000000,44.9990739135,-80.9975054594,1
22398000000,44.999074213,-80.9975018569,1
22423000000,44.9990746018,-80.9974971159,1
22441000000,44.9990748624,-80.9974938914,1
22458000000,44.9990751348,-80.9974904765,1
22478000000,44.9990754476,-80.9974864917,1
22498000000,44.9990757257,-80.9974828856,1
22520000000,44.9990760417,-80.9974787091,1
22539000000,44.999076323,-80.9974749114,1
22559000000,44.9990765983,-80.9974711128,1
22580000000,44.9990768672,-80.9974673132,1
22599000000,44.9990771167,-80.9974637027,1
22619000000,44.9990773725,-80.9974599012,1
22639000000,44.9990776214,-80.9974560988,1
22660000000,44.9990778629,-80.9974522955,1
22686000000,44.999078097,-80.9974484912,1
22699000000,44.9990783234,-80.9974446859,1
22719000000,44.9990785526,-80.9974406893,1
22738000000,44.9990787522,-80.9974370725,1
22758000000,44.9990789442,-80.9974334549,1
22779000000,44.9990791475,-80.9974294555,1
22807000000,44.9990794037,-80.9974241215,1
22820000000,44.9990795166,-80.9974216445,1
22838000000,44.999079675,-80.9974180235,1
22859000000,44.999079833,-80.9974142112,1
22893000000,44.9990799818,-80.9974103982,1
22898000000,44.9990801218,-80.9974065844,1
22919000000,44.9990802528,-80.99740277,1
22938000000,44.9990803748,-80.997398955,1
22965000000,44.9990805201,-80.9973939947,1
22978000000,44.9990805921,-80.9973913233,1
22999000000,44.9990806874,-80.9973875067,1
23018000000,44.9990807697,-80.9973838805,1
23038000000,44.9990808518,-80.9973798722,1
23058000000,44.999080922,-80.9973760545,1
23085000000,44.999080995,-80.9973714727,1
23099000000,44.9990810366,-80.997368418,1
23119000000,44.9990810815,-80.9973645994,1
23143000000,44.9990811247,-80.9973600169,1
23158000000,44.9990811472,-80.9973569617,1
23178000000,44.9990811684,-80.9973531426,1
23197000000,44.9990811817,-80.9973495144,1
23221000000,44.9990811899,-80.9973449314,1
23240000000,44.9990811897,-80.9973413031,1
23261000000,44.9990811833,-80.9973374838,1
23278000000,44.9990811723,-80.9973340465,1
23299000000,44.9990811546,-80.9973302273,1
23329000000,44.9990811178,-80.9973244985,1
23344000000,44.9990810939,-80.9973214432,1
23361000000,44.9990810655,-80.997318197,1
23378000000,44.9990810362,-80.9973151418,1
23398000000,44.9990809942,-80.997311132,1
23419000000,44.9990809509,-80.9973073131,1
23439000000,44.9990809046,-80.9973034944,1
23458000000,44.999080858,-80.9972998667,1
23492000000,44.9990807963,-80.9972952844,1
23504000000,44.9990807374,-80.9972910841,1
23519000000,44.9990806964,-80.9972882203,1
23548000000,44.9990806189,-80.9972828747,1
23558000000,44.9990805855,-80.9972805837,1
23578000000,44.9990805302,-80.9972767656,1
23597000000,44.9990804749,-80.9972729475,1
23622000000,44.9990804196,-80.9972691293,1
23639000000,44.9990803662,-80.9972653113,1
23665000000,44.9990802981,-80.9972601569,1
23680000000,44.9990802646,-80.9972574843,1
23699000000,44.9990802197,-80.9972536663,1
23718000000,44.9990801825,-80.9972502301,1
23741000000,44.9990801379,-80.9972456485,1
23758000000,44.9990801118,-80.9972425941,1
23779000000,44.9990800822,-80.9972385852,1
23799000000,44.9990800589,-80.9972345765,1
23818000000,44.9990800445,-80.9972311405,1
23840000000,44.9990800347,-80.9972271319,1
23859000000,44.9990800328,-80.9972233143,1
23879000000,44.9990800386,-80.9972194968,1
23901000000,44.9990800554,-80.997215107,1
23918000000,44.9990800739,-80.9972120534,1
23950000000,44.9990801318,-80.997205756,1
23959000000,44.9990801501,-80.9972042295,1
23975000000,44.9990802032,-80.9972004136,1
23996000000,44.9990802672,-80.9971965982,1
24002000000,39.2941054189,-88.7721170367,-1
24020000000,44.9990803507,-80.9971924019,1
24038000000,44.9990804296,-80.9971889691,1
24058000000,44.9990805287,-80.9971851556,1
24078000000,44.9990806401,-80.997181343,1
24104000000,44.9990807974,-80.9971765785,1
24119000000,44.9990808946,-80.9971739111,1
24138000000,44.9990810449,-80.9971701016,1
24157000000,44.9990812177,-80.997166103,1
24178000000,44.999081397,-80.9971622963,1
24202000000,44.9990816316,-80.9971577303,1
24222000000,44.9990817998,-80.9971546876,1
24238000000,44.9990820122,-80.997151076,1
24258000000,44.9990822632,-80.9971470863,1
24279000000,44.9990825314,-80.9971430991,1
24299000000,44.9990827893,-80.9971394939,1
24318000000,44.9990830624,-80.9971358914,1
24338000000,44.9990833823,-80.9971319124,1
24359000000,44.9990837045,-80.9971281258,1
24378000000,44.999084027,-80.9971245317,1
24399000000,44.9990844022,-80.9971205627,1
24419000000,44.999084778,-80.9971167865,1
24440000000,44.9990851521,-80.9971132026,1
24459000000,44.9990855777,-80.9971092442,1
24480000000,44.9990860275,-80.9971052911,1
24498000000,44.9990864372,-80.9971019088,1
24520000000,44.999086957,-80.9970977798,1
24538000000,44.9990873953,-80.9970944045,1
24558000000,44.9990879269,-80.9970904721,1
24588000000,44.9990886987,-80.9970850525,1
24599000000,44.9990890019,-80.9970829997,1
24618000000,44.9990895384,-80.9970794578,1
24638000000,44.9990901222,-80.9970757354,1
24659000000,44.9990907561,-80.9970718336,1
24679000000,44.9990913796,-80.997068124,1
24702000000,44.9990920883,-80.9970640514,1
24728000000,44.999092785,-80.9970601711,1
24740000000,44.9990934008,-80.9970568518,1
24759000000,44.9990940684,-80.9970533547,1
24778000000,44.9990947893,-80.9970496806,1
24798000000,44.9990954923,-80.9970461973,1
24818000000,44.9990962895,-80.9970423556,1
24839000000,44.9990970685,-80.9970387052,1
24859000000,44.9990978668,-80.997035063,1
24881000000,44.9990987669,-80.9970310663,1
24898000000,44.9990995203,-80.9970278038,1
24919000000,44.999100375,-80.997024187,1
24944000000,44.9991014671,-80.997019677,1
24963000000,44.9991023178,-80.9970162596,1
24989000000,44.9991031381,-80.9970130292,1
25008000000,44.9991043952,-80.9970081972,1
25018000000,44.9991049165,-80.9970062332,1
25039000000,44.9991058773,-80.9970026693,1
25065000000,44.9991070026,-80.9969985818,1
25078000000,44.9991078481,-80.9969955682,1
25101000000,44.9991088576,-80.996992031,1
25118000000,44.9991098825,-80.9969885026,1
25138000000,44.9991108705,-80.996985159,1
25159000000,44.9991119789,-80.9969814731,1
25178000000,44.9991130498,-80.9969779721,1
25199000000,44.9991141903,-80.9969743058,1
25220000000,44.9991153467,-80.9969706493,1
25238000000,44.9991162942,-80.9969676965,1
25258000000,44.9991174784,-80.9969640577,1
25278000000,44.9991186201,-80.9969606012,1
25298000000,44.9991197154,-80.996957325,1
25320000000,44.9991209975,-80.9969535402,1
25341000000,44.9991221808,-80.9969501118,1
25358000000,44.9991233142,-80.9969468613,1
25382000000,44.9991247015,-80.9969429371,1
25398000000,44.9991257367,-80.9969400435,1
25419000000,44.9991269649,-80.9969366465,1
25438000000,44.9991281416,-80.9969334265,1
25458000000,44.9991293903,-80.9969300445,1
25480000000,44.9991307123,-80.9969265012,1
25506000000,44.9991324274,-80.9969219572,1
25520000000,44.9991333875,-80.9969194382,1
25545000000,44.9991348686,-80.9969155824,1
25558000000,44.9991358405,-80.9969130724,1
25582000000,44.9991373391,-80.9969092302,1
25611000000,44.9991392425,-80.9969043964,1
25618000000,44.9991397041,-80.9969032314,1
25638000000,44.9991410941,-80.9968997405,1
25658000000,44.9991423579,-80.9968965868,1
25678000000,44.9991436941,-80.9968932721,1
25701000000,44.9991452377,-80.9968894658,1
25719000000,44.9991464508,-80.996886491,1
25738000000,44.9991477361,-80.996883355,1
25759000000,44.9991491617,-80.996879893,1
25781000000,44.9991507277,-80.9968761053,1
25800000000,44.9991519583,-80.9968731452,1
25818000000,44.9991531917,-80.9968701875,1
25838000000,44.9991545661,-80.9968669045,1
25860000000,44.9991561512,-80.996863133,1
25883000000,44.9991576714,-80.9968595288,1
25899000000,44.9991587791,-80.9968569095,1
25920000000,44.9991603049,-80.9968533103,1
25939000000,44.9991615554,-80.9968503673,1
25964000000,44.9991633642,-80.9968461189,1
25978000000,44.99916427,-80.9968439958,1
25999000000,44.9991657342,-80.9968405671,1
26001000000,37.7702825241,-85.2005333437,-1
26019000000,44.9991671295,-80.9968373025,1
26040000000,44.9991685955,-80.9968338756,1
26059000000,44.9991699222,-80.9968307754,1
26078000000,44.999171249,-80.9968276753,1
26098000000,44.9991727153,-80.9968242489,1
26123000000,44.9991744609,-80.9968201701,1
26140000000,44.9991755779,-80.9968175595,1
26158000000,44.9991769039,-80.9968144592,1
26179000000,44.999178299,-80.9968111952,1
26198000000,44.9991796235,-80.9968080938,1
26222000000,44.9991812952,-80.9968041752,1
26239000000,44.9991825478,-80.9968012354,1
26259000000,44.999183938,-80.9967979676,1
26278000000,44.9991852577,-80.9967948626,1
26308000000,44.9991872694,-80.9967901211,1
26334000000,44.9991891393,-80.9967857043,1
26339000000,44.999189416,-80.9967850497,1
26358000000,44.9991907297,-80.9967819399,1
26379000000,44.9991922489,-80.9967783375,1
26399000000,44.9991935592,-80.9967752251,1
26419000000,44.9991949366,-80.9967719474,1
26443000000,44.9991966557,-80.996767848,1
26459000000,44.9991976856,-80.9967653872,1
26479000000,44.9991990572,-80.9967621047,1
26499000000,44.9992004266,-80.9967588206,1
26518000000,44.9992017258,-80.9967556993,1
26539000000,44.9992031597,-80.9967522477,1
26559000000,44.9992045232,-80.996748959,1
26578000000,44.9992058169,-80.9967458332,1
26601000000,44.9992072446,-80.9967423769,1
26618000000,44.9992085346,-80.9967392482,1
26639000000,44.9992099584,-80.9967357888,1
26658000000,44.9992112451,-80.9967326576,1
26679000000,44.9992127332,-80.9967290307,1
26704000000,44.9992143547,-80.9967250726,1
26720000000,44.9992153673,-80.9967225982,1
26739000000,44.9992167166,-80.9967192984,1
26765000000,44.9992184697,-80.9967150078,1
26776000000,44.9992194136,-80.9967126975,1
26808000000,44.9992213012,-80.9967080768,1
26818000000,44.9992220428,-80.9967062616,1
26841000000,44.9992236609,-80.9967023012,1
26858000000,44.9992248069,-80.9966994959,1
26879000000,44.9992261552,-80.9966961957,1
26899000000,44.9992275038,-80.9966928956,1
26918000000,44.9992287854,-80.9966897611,1
26939000000,44.9992302028,-80.9966862975,1
26959000000,44.9992315539,-80.9966829997,1
26978000000,44.9992329063,-80.9966797032,1
26998000000,44.9992341927,-80.9966765727,1
27020000000,44.9992357517,-80.9966727849,1
27042000000,44.9992369737,-80.9966698222,1
27064000000,44.9992382647,-80.9966666958,1
27078000000,44.9992396264,-80.9966634075,1
27101000000,44.9992411953,-80.9966596279,1
27119000000,44.999242426,-80.9966566726,1
27139000000,44.9992437965,-80.9966533916,1
27159000000,44.9992451705,-80.9966501134,1
27184000000,44.999246686,-80.9966465111,1
27204000000,44.9992483447,-80.9966425858,1
27235000000,44.9992499401,-80.9966388291,1
27240000000,44.9992507053,-80.9966370344,1
27259000000,44.9992520306,-80.9966339374,1
27278000000,44.9992534309,-80.996630682,1
27298000000,44.9992548366,-80.9966274314,1
27319000000,44.9992563189,-80.9966240238,1
27342000000,44.9992579502,-80.9966202984,1
27359000000,44.9992591611,-80.9966175495,1
27379000000,44.999260592,-80.9966143211,1
27400000000,44.9992621741,-80.9966107772,1
27418000000,44.9992634027,-80.9966080442,1
27442000000,44.9992651463,-80.9966041941,1
27460000000,44.9992664614,-80.9966013135,1
27478000000,44.9992678563,-80.9965982787,1
27506000000,44.999269851,-80.9965939782,1
27518000000,44.999270817,-80.9965919124,1
27539000000,44.9992723099,-80.9965887413,1
27558000000,44.9992737367,-80.9965857365,1
27578000000,44.9992752473,-80.9965825821,1
27599000000,44.9992769198,-80.9965791227,1
27619000000,44.9992783735,-80.9965761441,1
27632000000,44.9992799131,-80.9965730178,1
27666000000,44.999282007,-80.9965688128,1
27678000000,44.9992830216,-80.9965667949,1
27698000000,44.9992845905,-80.9965636978,1
27720000000,44.9992862491,-80.9965604577,1
27739000000,44.99928768,-80.9965576899,1
27762000000,44.9992895206,-80.9965541661,1
27778000000,44.9992908902,-80.9965515711,1
27799000000,44.9992925928,-80.9965483769,1
27818000000,44.9992941435,-80.9965454979,1
27839000000,44.9992958691,-80.9965423283,1
27858000000,44.9992974408,-80.9965394721,1
27878000000,44.9992991895,-80.9965363281,1
27898000000,44.9993008666,-80.9965333468,1
27918000000,44.9993024704,-80.9965305265,1
27939000000,44.9993042552,-80.9965274229,1
27958000000,44.9993059665,-80.9965244806,1
27987000000,44.9993083819,-80.9965203841,1
27999000000,44.999309511,-80.9965184913,1
28002000000,35.2803929391,-72.4420647209,-1
28018000000,44.9993111701,-80.9965157353,1
28038000000,44.9993128395,-80.9965129919,1
28058000000,44.9993146082,-80.9965101179,1
28078000000,44.9993163886,-80.9965072582,1
28098000000,44.9993181804,-80.9965044129,1
28118000000,44.9993200744,-80.996501441,1
28139000000,44.99932189,-80.9964986258,1
28163000000,44.9993237167,-80.9964958251,1
28178000000,44.999325555,-80.9964930394,1
28199000000,44.9993274978,-80.9964901309,1
28221000000,44.9993295464,-80.9964871015,1
28238000000,44.9993310448,-80.9964849098,1
28258000000,44.9993330223,-80.9964820481,1
28278000000,44.999334822,-80.9964794735,1
28302000000,44.9993368228,-80.9964766441,1
28318000000,44.9993386434,-80.9964740988,1
28340000000,44.9993406669,-80.9964713016,1
28359000000,44.9993427024,-80.9964685217,1
28380000000,44.9993446519,-80.99646589,1
28398000000,44.9993465135,-80.9964634043,1
28419000000,44.9993485821,-80.9964606735,1
28444000000,44.9993509603,-80.9964575736,1
28466000000,44.9993531534,-80.996454752,1
28482000000,44.9993548562,-80.9964525843,1
28501000000,44.999356667,-80.9964503013,1
28529000000,44.9993594994,-80.9964467744,1
28538000000,44.9993605154,-80.9964455219,1
28558000000,44.999362553,-80.996443026,1
28582000000,44.9993649101,-80.9964401782,1
28607000000,44.9993674844,-80.9964371029,1
28618000000,44.9993686216,-80.9964357573,1
28639000000,44.9993708,-80.996433201,1
28658000000,44.9993728836,-80.9964307814,1
28678000000,44.9993748711,-80.9964284965,1
28698000000,44.9993769714,-80.9964261056,1
28719000000,44.9993792912,-80.996423492,1
28742000000,44.9993817257,-80.9964207763,1
28766000000,44.999383533,-80.9964187828,1
28778000000,44.9993854521,-80.9964166822,1
28799000000,44.9993876988,-80.9964142452,1
28818000000,44.9993898461,-80.9964119384,1
28838000000,44.9993920005,-80.9964096444,1
28859000000,44.9993941618,-80.9964073632,1
28882000000,44.9993963297,-80.9964050945,1
28898000000,44.9993985041,-80.9964028379,1
28918000000,44.9994006846,-80.9964005932,1
28941000000,44.9994028711,-80.9963983599,1
28958000000,44.9994050634,-80.9963961377,1
28979000000,44.9994072611,-80.9963939262,1
28998000000,44.9994094642,-80.9963917254,1
29018000000,44.999411562,-80.9963896442,1
29039000000,44.9994139968,-80.996387246,1
29058000000,44.9994161044,-80.9963851845,1
